"Hospital.Name","Provider.ID","Address","City","State","ZIP.Code","Full","lon","lat"
"UNIVERSITY OF ALABAMA HOSPITAL",10033,"619 SOUTH 19TH STREET","BIRMINGHAM","AL",35233,"619 SOUTH 19TH STREET, BIRMINGHAM, AL, 35233, USA",-86.801871,33.506161
"MAYO CLINIC HOSPITAL",30103,"5777 EAST MAYO BOULEVARD","PHOENIX","AZ",85054,"5777 EAST MAYO BOULEVARD, PHOENIX, AZ, 85054, USA",-111.955709,33.663468
"BAPTIST HEALTH MEDICAL CENTER-LITTLE ROCK",40114,"9601 INTERSTATE 630, EXIT 7","LITTLE ROCK","AR",72205,"9601 INTERSTATE 630, EXIT 7, LITTLE ROCK, AR, 72205, USA",-92.327475,34.748661
"UC SAN DIEGO HEALTH HILLCREST - HILLCREST MED CTR",50025,"200 WEST ARBOR DRIVE","SAN DIEGO","CA",92103,"200 WEST ARBOR DRIVE, SAN DIEGO, CA, 92103, USA",-117.164978,32.753785
"SHARP MEMORIAL HOSPITAL",50100,"7901 FROST ST","SAN DIEGO","CA",92123,"7901 FROST ST, SAN DIEGO, CA, 92123, USA",-117.154051,32.800252
"SUTTER MEDICAL CENTER, SACRAMENTO",50108,"2825 CAPITOL AVENUE","SACRAMENTO","CA",95816,"2825 CAPITOL AVENUE, SACRAMENTO, CA, 95816, USA",-121.470374,38.5705
"RONALD REAGAN U C L A MEDICAL CENTER",50262,"757 WESTWOOD PLAZA","LOS ANGELES","CA",90095,"757 WESTWOOD PLAZA, LOS ANGELES, CA, 90095, USA",-118.444988,34.069511
"STANFORD HEALTH CARE",50441,"300 PASTEUR DRIVE","STANFORD","CA",94305,"300 PASTEUR DRIVE, STANFORD, CA, 94305, USA",-122.17649,37.433659
"UCSF MEDICAL CENTER",50454,"505 PARNASSUS AVE, BOX 0296","SAN FRANCISCO","CA",94143,"505 PARNASSUS AVE, BOX 0296, SAN FRANCISCO, CA, 94143, USA",-122.458582,37.76313
"CEDARS-SINAI MEDICAL CENTER",50625,"8700 BEVERLY BLVD","LOS ANGELES","CA",90048,"8700 BEVERLY BLVD, LOS ANGELES, CA, 90048, USA",-118.381142,34.076922
"UNIVERSITY OF COLORADO HOSPITAL AUTHORITY",60024,"12605 EAST 16TH AVENUE","AURORA","CO",80045,"12605 EAST 16TH AVENUE, AURORA, CO, 80045, USA",-104.84214,39.741437
"YALE-NEW HAVEN HOSPITAL",70022,"20 YORK ST","NEW HAVEN","CT",6504,"20 YORK ST, NEW HAVEN, CT, 6504, USA",-82.877154,42.598739
"HARTFORD HOSPITAL",70025,"80 SEYMOUR STREET","HARTFORD","CT",6102,"80 SEYMOUR STREET, HARTFORD, CT, 6102, USA",-83.203782,37.289182
"MEDSTAR WASHINGTON HOSPITAL CENTER",90011,"110 IRVING ST NW","WASHINGTON","DC",20010,"110 IRVING ST NW, WASHINGTON, DC, 20010, USA",-77.015459,38.930977
"FLORIDA HOSPITAL",100007,"601 E ROLLINS ST","ORLANDO","FL",32803,"601 E ROLLINS ST, ORLANDO, FL, 32803, USA",-81.371099,28.574096
"JACKSON MEMORIAL HOSPITAL",100022,"1611 NW 12TH AVE","MIAMI","FL",33136,"1611 NW 12TH AVE, MIAMI, FL, 33136, USA",-80.21497,25.790555
"UF HEALTH SHANDS HOSPITAL",100113,"1600 SW ARCHER RD","GAINESVILLE","FL",32610,"1600 SW ARCHER RD, GAINESVILLE, FL, 32610, USA",-82.343355,29.639229
"TAMPA GENERAL HOSPITAL",100128,"1 TAMPA GENERAL CIR","TAMPA","FL",33606,"1 TAMPA GENERAL CIR, TAMPA, FL, 33606, USA",-82.457766,27.945158
"MAYO CLINIC",100151,"4500 SAN PABLO RD","JACKSONVILLE","FL",32224,"4500 SAN PABLO RD, JACKSONVILLE, FL, 32224, USA",-81.437685,30.287929
"EMORY UNIVERSITY HOSPITAL",110010,"1364 CLIFTON ROAD, NE","ATLANTA","GA",30322,"1364 CLIFTON ROAD, NE, ATLANTA, GA, 30322, USA",-84.320938,33.791955
"PIEDMONT HOSPITAL",110083,"1968 PEACHTREE RD NW","ATLANTA","GA",30309,"1968 PEACHTREE RD NW, ATLANTA, GA, 30309, USA",-84.392523,33.809028
"THE UNIVERSITY OF CHICAGO MEDICAL CENTER",140088,"5841 SOUTH MARYLAND","CHICAGO","IL",60637,"5841 SOUTH MARYLAND, CHICAGO, IL, 60637, USA",-87.604882,41.788784
"ADVOCATE CHRIST HOSPITAL & MEDICAL CENTER",140208,"4440 W 95TH STREET","OAK LAWN","IL",60453,"4440 W 95TH STREET, OAK LAWN, IL, 60453, USA",-87.732298,41.720241
"LOYOLA UNIVERSITY MEDICAL CENTER",140276,"2160 S 1ST AVENUE","MAYWOOD","IL",60153,"2160 S 1ST AVENUE, MAYWOOD, IL, 60153, USA",-87.833455,41.865155
"NORTHWESTERN MEMORIAL HOSPITAL",140281,"251 E HURON ST","CHICAGO","IL",60611,"251 E HURON ST, CHICAGO, IL, 60611, USA",-87.621707,41.894927
"ST VINCENT HOSPITAL & HEALTH SERVICES",150084,"2001 W 86TH ST","INDIANAPOLIS","IN",46260,"2001 W 86TH ST, INDIANAPOLIS, IN, 46260, USA",-86.196371,39.912034
"UNIVERSITY OF IOWA HOSPITAL & CLINICS",160058,"200 HAWKINS DRIVE","IOWA CITY","IA",52242,"200 HAWKINS DRIVE, IOWA CITY, IA, 52242, USA",-91.549849,41.657289
"JEWISH HOSPITAL & ST MARY'S HEALTHCARE",180040,"200 ABRAHAM FLEXNER WAY","LOUISVILLE","KY",40202,"200 ABRAHAM FLEXNER WAY, LOUISVILLE, KY, 40202, USA",-85.749039,38.249106
"UNIVERSITY OF KENTUCKY HOSPITAL",180067,"800 ROSE STREET","LEXINGTON","KY",40536,"800 ROSE STREET, LEXINGTON, KY, 40536, USA",-84.506716,38.032914
"UNIVERSITY OF MARYLAND MEDICAL CENTER",210002,"22 SOUTH  GREENE STREET","BALTIMORE","MD",21201,"22 SOUTH  GREENE STREET, BALTIMORE, MD, 21201, USA",-76.623782,39.289441
"MASSACHUSETTS GENERAL HOSPITAL",220071,"55 FRUIT STREET","BOSTON","MA",2114,"55 FRUIT STREET, BOSTON, MA, 2114, USA",-71.069772,42.362505
"BRIGHAM AND WOMEN'S HOSPITAL",220110,"75 FRANCIS STREET","BOSTON","MA",2115,"75 FRANCIS STREET, BOSTON, MA, 2115, USA",-71.105698,42.334963
"TUFTS MEDICAL CENTER",220116,"800 WASHINGTON STREET","BOSTON","MA",2111,"800 WASHINGTON STREET, BOSTON, MA, 2111, USA",-73.086513,42.333258
"SPECTRUM HEALTH - BUTTERWORTH CAMPUS",230038,"100 MICHIGAN ST NE","GRAND RAPIDS","MI",49503,"100 MICHIGAN ST NE, GRAND RAPIDS, MI, 49503, USA",-85.665027,42.970523
"UNIVERSITY OF MICHIGAN HEALTH SYSTEM",230046,"1500 E MEDICAL CENTER DRIVE, SPC 5474","ANN ARBOR","MI",48109,"1500 E MEDICAL CENTER DRIVE, SPC 5474, ANN ARBOR, MI, 48109, USA",-83.726757,42.281478
"HENRY FORD HOSPITAL",230053,"2799 W GRAND BLVD","DETROIT","MI",48202,"2799 W GRAND BLVD, DETROIT, MI, 48202, USA",-83.083663,42.3667
"MAYO CLINIC HOSPITAL ROCHESTER",240010,"1216 SECOND STREET SOUTHWEST","ROCHESTER","MN",55902,"1216 SECOND STREET SOUTHWEST, ROCHESTER, MN, 55902, USA",-92.481521,44.021554
"ABBOTT NORTHWESTERN HOSPITAL",240057,"800 EAST 28TH STREET","MINNEAPOLIS","MN",55407,"800 EAST 28TH STREET, MINNEAPOLIS, MN, 55407, USA",-93.262611,44.951943
"UNIVERSITY OF MINNESOTA  MEDICAL CENTER, FAIRVIEW",240080,"2450 RIVERSIDE AVENUE","MINNEAPOLIS","MN",55454,"2450 RIVERSIDE AVENUE, MINNEAPOLIS, MN, 55454, USA",-93.236942,44.9659
"BARNES JEWISH HOSPITAL",260032,"ONE BARNES-JEWISH HOSPITAL PLAZA","SAINT LOUIS","MO",63110,"ONE BARNES-JEWISH HOSPITAL PLAZA, SAINT LOUIS, MO, 63110, USA",-90.499403,38.679184
"ST LUKES HOSPITAL OF KANSAS CITY",260138,"4401 WORNALL ROAD","KANSAS CITY","MO",64111,"4401 WORNALL ROAD, KANSAS CITY, MO, 64111, USA",-94.590136,39.046514
"THE NEBRASKA MEDICAL CENTER",280013,"987400 NEBRASKA MEDICAL CENTER","OMAHA","NE",68198,"987400 NEBRASKA MEDICAL CENTER, OMAHA, NE, 68198, USA",-96.171358,41.314842
"NEWARK BETH ISRAEL MEDICAL CENTER",310002,"201 LYONS AVE","NEWARK","NJ",7112,"201 LYONS AVE, NEWARK, NJ, 7112, USA",-74.21326,40.710055
"MOUNT SINAI HOSPITAL",330024,"ONE GUSTAVE L LEVY PLACE","NEW YORK","NY",10029,"ONE GUSTAVE L LEVY PLACE, NEW YORK, NY, 10029, USA",-73.953888,40.790471
"MONTEFIORE MEDICAL CENTER",330059,"111 EAST 210TH STREET","BRONX","NY",10467,"111 EAST 210TH STREET, BRONX, NY, 10467, USA",-73.880713,40.879991
"NEW YORK-PRESBYTERIAN HOSPITAL",330101,"525 EAST 68TH STREET","NEW YORK","NY",10065,"525 EAST 68TH STREET, NEW YORK, NY, 10065, USA",-73.955134,40.764111
"WESTCHESTER MEDICAL CENTER",330234,"100 WOODS RD","VALHALLA","NY",10595,"100 WOODS RD, VALHALLA, NY, 10595, USA",-73.803666,41.086855
"STRONG MEMORIAL HOSPITAL",330285,"601 ELMWOOD AVE","ROCHESTER","NY",14642,"601 ELMWOOD AVE, ROCHESTER, NY, 14642, USA",-77.62343,43.124397
"DUKE UNIVERSITY HOSPITAL",340030,"PO BOX 3814 DUMC  ERWIN RD","DURHAM","NC",27710,"PO BOX 3814 DUMC  ERWIN RD, DURHAM, NC, 27710, USA",-78.857651,36.051155
"UNIVERSITY OF NORTH CAROLINA HOSPITAL",340061,"101 MANNING DRIVE","CHAPEL HILL","NC",27514,"101 MANNING DRIVE, CHAPEL HILL, NC, 27514, USA",-79.044342,35.903692
"CAROLINAS MEDICAL CENTER/BEHAV HEALTH",340113,"1000 BLYTHE BLVD","CHARLOTTE","NC",28203,"1000 BLYTHE BLVD, CHARLOTTE, NC, 28203, USA",-80.838388,35.204556
"OHIO STATE UNIVERSITY HOSPITALS",360085,"410 WEST 10TH AVENUE","COLUMBUS","OH",43210,"410 WEST 10TH AVENUE, COLUMBUS, OH, 43210, USA",-83.015859,39.994478
"CHRIST HOSPITAL",360163,"2139 AUBURN AVENUE","CINCINNATI","OH",45219,"2139 AUBURN AVENUE, CINCINNATI, OH, 45219, USA",-84.508522,39.120897
"CLEVELAND CLINIC",360180,"9500 EUCLID AVENUE","CLEVELAND","OH",44195,"9500 EUCLID AVENUE, CLEVELAND, OH, 44195, USA",-81.620693,41.503521
"INTEGRIS BAPTIST MEDICAL CENTER, INC",370028,"3300 NORTHWEST EXPRESSWAY","OKLAHOMA CITY","OK",73112,"3300 NORTHWEST EXPRESSWAY, OKLAHOMA CITY, OK, 73112, USA",-97.568353,35.527397
"OHSU HOSPITAL AND CLINICS",380009,"3181 SW SAM JACKSON PARK ROAD","PORTLAND","OR",97239,"3181 SW SAM JACKSON PARK ROAD, PORTLAND, OR, 97239, USA",-122.688076,45.499288
"TEMPLE UNIVERSITY HOSPITAL",390027,"3401 NORTH BROAD STREET","PHILADELPHIA","PA",19140,"3401 NORTH BROAD STREET, PHILADELPHIA, PA, 19140, USA",-75.152236,40.004689
"HOSPITAL OF UNIV OF PENNSYLVANIA",390111,"34TH & SPRUCE STS","PHILADELPHIA","PA",19104,"34TH & SPRUCE STS, PHILADELPHIA, PA, 19104, USA",-75.19668,39.960912
"MILTON S HERSHEY MEDICAL CENTER",390256,"500 UNIVERSITY DRIVE","HERSHEY","PA",17033,"500 UNIVERSITY DRIVE, HERSHEY, PA, 17033, USA",-76.675745,40.273179
"PALMETTO HEALTH RICHLAND",420018,"5 RICHLAND MEDICAL PARK","COLUMBIA","SC",29203,"5 RICHLAND MEDICAL PARK, COLUMBIA, SC, 29203, USA",-81.030216,34.027446
"VANDERBILT UNIVERSITY MEDICAL CENTER",440039,"1211 MEDICAL CENTER DRIVE","NASHVILLE","TN",37232,"1211 MEDICAL CENTER DRIVE, NASHVILLE, TN, 37232, USA",-86.801485,36.140845
"BAPTIST MEMORIAL HOSPITAL",440048,"6019 WALNUT GROVE ROAD","MEMPHIS","TN",38120,"6019 WALNUT GROVE ROAD, MEMPHIS, TN, 38120, USA",-89.856973,35.131469
"SAINT THOMAS WEST HOSPITAL",440082,"4220 HARDING RD, PO BOX 380","NASHVILLE","TN",37205,"4220 HARDING RD, PO BOX 380, NASHVILLE, TN, 37205, USA",-86.865776,36.108558
"BAYLOR UNIVERSITY MEDICAL CENTER",450021,"3500 GASTON AVE","DALLAS","TX",75246,"3500 GASTON AVE, DALLAS, TX, 75246, USA",-96.781093,32.790451
"UT SOUTHWESTERN UNIVERSITY HOSPITAL",450044,"6201 HARRY HINES BLVD","DALLAS","TX",75390,"6201 HARRY HINES BLVD, DALLAS, TX, 75390, USA",-96.84065,32.814164
"MEMORIAL HERMANN TEXAS MEDICAL CENTER",450068,"6411 FANNIN","HOUSTON","TX",77030,"6411 FANNIN, HOUSTON, TX, 77030, USA",-95.397801,29.713601
"CHI ST LUKE'S HEALTH BAYLOR COLLEGE OF MEDICINE ME",450193,"6720 BERTNER","HOUSTON","TX",77030,"6720 BERTNER, HOUSTON, TX, 77030, USA",-95.399077,29.707315
"HOUSTON METHODIST HOSPITAL",450358,"6565 FANNIN","HOUSTON","TX",77030,"6565 FANNIN, HOUSTON, TX, 77030, USA",-95.39997,29.710873
"METHODIST HOSPITAL",450388,"7700 FLOYD CURL DR","SAN ANTONIO","TX",78229,"7700 FLOYD CURL DR, SAN ANTONIO, TX, 78229, USA",-98.573834,29.509023
"UNIVERSITY HEALTH CARE/UNIV HOSPITALS AND CLINICS",460009,"50 NORTH MEDICAL DRIVE","SALT LAKE CITY","UT",84132,"50 NORTH MEDICAL DRIVE, SALT LAKE CITY, UT, 84132, USA",-111.838858,40.77278
"SENTARA NORFOLK GENERAL HOSPITAL",490007,"600 GRESHAM DR","NORFOLK","VA",23507,"600 GRESHAM DR, NORFOLK, VA, 23507, USA",-76.304433,36.863973
"UNIVERSITY OF VIRGINIA MEDICAL CENTER",490009,"JEFFERSON PARK AVE","CHARLOTTESVILLE","VA",22908,"JEFFERSON PARK AVE, CHARLOTTESVILLE, VA, 22908, USA",-78.49779,38.033254
"MEDICAL COLLEGE OF VIRGINIA HOSPITALS",490032,"1250 EAST MARSHALL STREET - BOX 980510","RICHMOND","VA",23298,"1250 EAST MARSHALL STREET - BOX 980510, RICHMOND, VA, 23298, USA",-77.431555,37.540646
"INOVA FAIRFAX HOSPITAL",490063,"3300 GALLOWS ROAD","FALLS CHURCH","VA",22042,"3300 GALLOWS ROAD, FALLS CHURCH, VA, 22042, USA",-77.226059,38.858922
"UNIVERSITY OF WASHINGTON MEDICAL CTR",500008,"1959 NE PACIFIC ST  BOX 356151","SEATTLE","WA",98195,"1959 NE PACIFIC ST  BOX 356151, SEATTLE, WA, 98195, USA",-122.308282,47.648763
"PROVIDENCE SACRED HEART MEDICAL CENTER",500054,"101 WEST 8TH AVENUE","SPOKANE","WA",99204,"101 WEST 8TH AVENUE, SPOKANE, WA, 99204, USA",-117.413771,47.648306
"AURORA ST LUKES MEDICAL CENTER",520138,"2900 W OKLAHOMA AVE","MILWAUKEE","WI",53215,"2900 W OKLAHOMA AVE, MILWAUKEE, WI, 53215, USA",-87.950694,42.98854
"SOUTHEAST ALABAMA MEDICAL CENTER",10001,"1108 ROSS CLARK CIRCLE","DOTHAN","AL",36301,"1108 ROSS CLARK CIRCLE, DOTHAN, AL, 36301, USA",-85.361486,31.215446
"ELIZA COFFEE MEMORIAL HOSPITAL",10006,"205 MARENGO STREET","FLORENCE","AL",35631,"205 MARENGO STREET, FLORENCE, AL, 35631, USA",-87.685065,34.795157
"BAPTIST MEDICAL CENTER SOUTH",10023,"2105 EAST SOUTH BOULEVARD","MONTGOMERY","AL",36116,"2105 EAST SOUTH BOULEVARD, MONTGOMERY, AL, 36116, USA",-86.275195,32.327243
"JACKSON HOSPITAL & CLINIC INC",10024,"1725 PINE STREET","MONTGOMERY","AL",36106,"1725 PINE STREET, MONTGOMERY, AL, 36106, USA",-86.286013,32.366622
"EAST ALABAMA MEDICAL CENTER",10029,"2000 PEPPERELL PARKWAY","OPELIKA","AL",36801,"2000 PEPPERELL PARKWAY, OPELIKA, AL, 36801, USA",-85.404084,32.638087
"HUNTSVILLE HOSPITAL",10039,"101 SIVLEY RD","HUNTSVILLE","AL",35801,"101 SIVLEY RD, HUNTSVILLE, AL, 35801, USA",-86.581505,34.721218
"GADSDEN REGIONAL MEDICAL CENTER",10040,"1007 GOODYEAR AVENUE","GADSDEN","AL",35903,"1007 GOODYEAR AVENUE, GADSDEN, AL, 35903, USA",-85.971314,34.009359
"PRINCETON BAPTIST MEDICAL CENTER",10103,"701 PRINCETON AVENUE SOUTHWEST","BIRMINGHAM","AL",35211,"701 PRINCETON AVENUE SOUTHWEST, BIRMINGHAM, AL, 35211, USA",-86.845303,33.499575
"GRANDVIEW MEDICAL CENTER",10104,"3690 GRANDVIEW PARKWAY","BIRMINGHAM","AL",35243,"3690 GRANDVIEW PARKWAY, BIRMINGHAM, AL, 35243, USA",-86.719349,33.435811
"MOBILE INFIRMARY MEDICAL CENTER",10113,"5 MOBILE INFIRMARY CIRCLE","MOBILE","AL",36652,"5 MOBILE INFIRMARY CIRCLE, MOBILE, AL, 36652, USA",-87.831401,30.229815
"PROVIDENCE ALASKA MEDICAL CENTER",20001,"3200 PROVIDENCE DRIVE","ANCHORAGE","AK",99508,"3200 PROVIDENCE DRIVE, ANCHORAGE, AK, 99508, USA",-149.819652,61.189771
"BANNER - UNIVERSITY MEDICAL CENTER PHOENIX",30002,"1111 EAST MCDOWELL ROAD","PHOENIX","AZ",85006,"1111 EAST MCDOWELL ROAD, PHOENIX, AZ, 85006, USA",-112.058334,33.46579
"JOHN C. LINCOLN MEDICAL CENTER",30014,"250 EAST DUNLAP AVENUE","PHOENIX","AZ",85020,"250 EAST DUNLAP AVENUE, PHOENIX, AZ, 85020, USA",-112.07062,33.567754
"MARICOPA MEDICAL CENTER",30022,"2601 EAST ROOSEVELT STREET","PHOENIX","AZ",85008,"2601 EAST ROOSEVELT STREET, PHOENIX, AZ, 85008, USA",-112.025883,33.45856
"ST. JOSEPH'S HOSPITAL AND MEDICAL CENTER",30024,"350 WEST THOMAS ROAD","PHOENIX","AZ",85013,"350 WEST THOMAS ROAD, PHOENIX, AZ, 85013, USA",-112.078679,33.480383
"CHANDLER REGIONAL MEDICAL CENTER",30036,"1955 WEST FRYE ROAD","CHANDLER","AZ",85224,"1955 WEST FRYE ROAD, CHANDLER, AZ, 85224, USA",-111.875433,33.298619
"ST LUKE'S MEDICAL CENTER",30037,"1800 EAST VAN BUREN STREET","PHOENIX","AZ",85006,"1800 EAST VAN BUREN STREET, PHOENIX, AZ, 85006, USA",-112.043372,33.451428
"SCOTTSDALE OSBORN MEDICAL CENTER",30038,"7400 EAST OSBORN ROAD","SCOTTSDALE","AZ",85251,"7400 EAST OSBORN ROAD, SCOTTSDALE, AZ, 85251, USA",-111.923906,33.487651
"BANNER-UNIVERSITY MEDICAL CENTER TUCSON CAMPUS",30064,"1501 NORTH CAMPBELL AVENUE","TUCSON","AZ",85724,"1501 NORTH CAMPBELL AVENUE, TUCSON, AZ, 85724, USA",-110.943978,32.240653
"SCOTTSDALE SHEA MEDICAL CENTER",30087,"9003 EAST SHEA BOULEVARD","SCOTTSDALE","AZ",85260,"9003 EAST SHEA BOULEVARD, SCOTTSDALE, AZ, 85260, USA",-111.886087,33.582479
"WASHINGTON REGIONAL MEDICAL CENTER",40004,"3215 N NORTH HILLS BOULEVARD","FAYETTEVILLE","AR",72703,"3215 N NORTH HILLS BOULEVARD, FAYETTEVILLE, AR, 72703, USA",-94.155774,36.108668
"CHI-ST VINCENT INFIRMARY",40007,"TWO ST VINCENT CIRCLE","LITTLE ROCK","AR",72205,"TWO ST VINCENT CIRCLE, LITTLE ROCK, AR, 72205, USA",-92.341695,34.74864
"UAMS MEDICAL CENTER",40016,"4301 WEST MARKHAM STREET MAIL SLOT 612","LITTLE ROCK","AR",72205,"4301 WEST MARKHAM STREET MAIL SLOT 612, LITTLE ROCK, AR, 72205, USA",-92.320681,34.751564
"ST BERNARDS MEDICAL CENTER",40020,"225 E JACKSON","JONESBORO","AR",72401,"225 E JACKSON, JONESBORO, AR, 72401, USA",-90.70227,35.837417
"CHI ST. VINCENT HOSPITAL HOT SPRINGS",40026,"300 WERNER STREET","HOT SPRINGS","AR",71903,"300 WERNER STREET, HOT SPRINGS, AR, 71903, USA",-93.067508,34.466119
"SPARKS REGIONAL MEDICAL CENTER",40055,"1001 TOWSON AVENUE","FORT SMITH","AR",72902,"1001 TOWSON AVENUE, FORT SMITH, AR, 72902, USA",-94.421326,35.374477
"RIVERSIDE COMMUNITY HOSPITAL",50022,"4445 MAGNOLIA AVENUE","RIVERSIDE","CA",92501,"4445 MAGNOLIA AVENUE, RIVERSIDE, CA, 92501, USA",-117.378373,33.976249
"GROSSMONT HOSPITAL",50026,"5555 GROSSMONT CENTER DRIVE BOX 58","LA MESA","CA",91942,"5555 GROSSMONT CENTER DRIVE BOX 58, LA MESA, CA, 91942, USA",-117.021511,32.777999
"CALIFORNIA PACIFIC MEDICAL CTR-PACIFIC CAMPUS HOSP",50047,"2333 BUCHANAN STREET","SAN FRANCISCO","CA",94115,"2333 BUCHANAN STREET, SAN FRANCISCO, CA, 94115, USA",-122.430914,37.791129
"ANTELOPE VALLEY HOSPITAL",50056,"1600 W AVE J","LANCASTER","CA",93534,"1600 W AVE J, LANCASTER, CA, 93534, USA",-118.158761,34.68926
"KAWEAH DELTA MEDICAL CENTER",50057,"400 W MINERAL KING AVE","VISALIA","CA",93291,"400 W MINERAL KING AVE, VISALIA, CA, 93291, USA",-119.295137,36.327356
"COMMUNITY REGIONAL MEDICAL CENTER",50060,"2823 FRESNO STREET","FRESNO","CA",93721,"2823 FRESNO STREET, FRESNO, CA, 93721, USA",-119.784025,36.741892
"SCRIPPS MERCY HOSPITAL",50077,"4077 5TH AVE","SAN DIEGO","CA",92103,"4077 5TH AVE, SAN DIEGO, CA, 92103, USA",-117.161096,32.751313
"SAINT AGNES MEDICAL CENTER",50093,"1303 E HERNDON AVE","FRESNO","CA",93710,"1303 E HERNDON AVE, FRESNO, CA, 93710, USA",-119.772066,36.837038
"REGIONAL MEDICAL CENTER OF SAN JOSE",50125,"225 N JACKSON AVENUE","SAN JOSE","CA",95116,"225 N JACKSON AVENUE, SAN JOSE, CA, 95116, USA",-121.847739,37.362757
"RIDEOUT MEMORIAL HOSPITAL",50133,"726 4TH ST","MARYSVILLE","CA",95901,"726 4TH ST, MARYSVILLE, CA, 95901, USA",-121.594949,39.138803
"ST JUDE MEDICAL CENTER",50168,"101 E VALENCIA MESA DRIVE","FULLERTON","CA",92835,"101 E VALENCIA MESA DRIVE, FULLERTON, CA, 92835, USA",-117.9284,33.893439
"HOAG MEMORIAL HOSPITAL PRESBYTERIAN",50224,"ONE HOAG DRIVE","NEWPORT BEACH","CA",92663,"ONE HOAG DRIVE, NEWPORT BEACH, CA, 92663, USA",-117.930663,33.625736
"DESERT REGIONAL MEDICAL CENTER",50243,"1150 NORTH INDIAN CANYON DRIVE","PALM SPRINGS","CA",92262,"1150 NORTH INDIAN CANYON DRIVE, PALM SPRINGS, CA, 92262, USA",-116.545514,33.838416
"PROVIDENCE HOLY CROSS MEDICAL CENTER",50278,"15031 RINALDI ST","MISSION HILLS","CA",91346,"15031 RINALDI ST, MISSION HILLS, CA, 91346, USA",-118.459519,34.279081
"MERCY MEDICAL CENTER REDDING",50280,"2175 ROSALINE AVE, CLAIRMONT HGTS","REDDING","CA",96001,"2175 ROSALINE AVE, CLAIRMONT HGTS, REDDING, CA, 96001, USA",-122.396538,40.572569
"PROVIDENCE SAINT JOHN'S HEALTH CENTER",50290,"2121 SANTA MONICA BLVD","SANTA MONICA","CA",90404,"2121 SANTA MONICA BLVD, SANTA MONICA, CA, 90404, USA",-118.478749,34.029813
"SUTTER ROSEVILLE MEDICAL CENTER",50309,"ONE MEDICAL PLAZA","ROSEVILLE","CA",95661,"ONE MEDICAL PLAZA, ROSEVILLE, CA, 95661, USA",-121.974361,38.336875
"SCRIPPS MEMORIAL HOSPITAL LA JOLLA",50324,"9888 GENESEE AVENUE","LA JOLLA","CA",92037,"9888 GENESEE AVENUE, LA JOLLA, CA, 92037, USA",-117.222421,32.884658
"LOMA LINDA UNIVERSITY MEDICAL CENTER",50327,"11234 ANDERSON ST","LOMA LINDA","CA",92354,"11234 ANDERSON ST, LOMA LINDA, CA, 92354, USA",-117.261205,34.049613
"UNIVERSITY OF CALIFORNIA IRVINE MED CENTER",50348,"101 CITY DRIVE SOUTH","ORANGE","CA",92868,"101 CITY DRIVE SOUTH, ORANGE, CA, 92868, USA",-117.894263,33.780122
"LAC+USC MEDICAL CENTER",50373,"1200 N STATE ST, ROOM C2K100","LOS ANGELES","CA",90033,"1200 N STATE ST, ROOM C2K100, LOS ANGELES, CA, 90033, USA",-118.218487,34.043104
"CITRUS VALLEY MEDICAL CENTER-IC CAMPUS",50382,"210 W  SAN BERNARDINO ROAD","COVINA","CA",91723,"210 W  SAN BERNARDINO ROAD, COVINA, CA, 91723, USA",-117.892568,34.089959
"SANTA BARBARA COTTAGE HOSPITAL",50396,"400 WEST PUEBLO","SANTA BARBARA","CA",93102,"400 WEST PUEBLO, SANTA BARBARA, CA, 93102, USA",-119.723089,34.42943
"HUNTINGTON MEMORIAL HOSPITAL",50438,"100 W  CALIFORNIA BLVD","PASADENA","CA",91109,"100 W  CALIFORNIA BLVD, PASADENA, CA, 91109, USA",-118.152944,34.135841
"EDEN MEDICAL CENTER",50488,"20103 LAKE CHABOT ROAD","CASTRO VALLEY","CA",94546,"20103 LAKE CHABOT ROAD, CASTRO VALLEY, CA, 94546, USA",-122.087377,37.69845
"MERCY SAN JUAN MEDICAL CENTER",50516,"6501 COYLE AVE","CARMICHAEL","CA",95608,"6501 COYLE AVE, CARMICHAEL, CA, 95608, USA",-121.312979,38.667927
"MEMORIAL MEDICAL CENTER",50557,"1700 COFFEE RD","MODESTO","CA",95355,"1700 COFFEE RD, MODESTO, CA, 95355, USA",-120.975605,37.668546
"FOUNTAIN VALLEY REGIONAL HOSPITAL & MEDICAL CENTER",50570,"17100 EUCLID STREET","FOUNTAIN VALLEY","CA",92708,"17100 EUCLID STREET, FOUNTAIN VALLEY, CA, 92708, USA",-117.9371,33.712582
"UNIVERSITY OF CALIFORNIA DAVIS MEDICAL CENTER",50599,"2315 STOCKTON BOULEVARD","SACRAMENTO","CA",95817,"2315 STOCKTON BOULEVARD, SACRAMENTO, CA, 95817, USA",-121.45745,38.554382
"KECK HOSPITAL OF USC",50696,"1500 SAN PABLO ST","LOS ANGELES","CA",90033,"1500 SAN PABLO ST, LOS ANGELES, CA, 90033, USA",-118.203101,34.062374
"CENTINELA HOSPITAL MEDICAL CENTER",50739,"555 EAST HARDY STREET","INGLEWOOD","CA",90301,"555 EAST HARDY STREET, INGLEWOOD, CA, 90301, USA",-118.348342,33.949166
"ORANGE COUNTY GLOBAL MEDICAL CENTER",50746,"1001 NORTH TUSTIN AVENUE","SANTA ANA","CA",92705,"1001 NORTH TUSTIN AVENUE, SANTA ANA, CA, 92705, USA",-117.8342,33.752819
"DENVER HEALTH MEDICAL CENTER",60011,"777 BANNOCK ST","DENVER","CO",80204,"777 BANNOCK ST, DENVER, CO, 80204, USA",-104.990273,39.727309
"CENTURA HEALTH-ST ANTHONY HOSPITAL",60015,"11600 WEST 2ND PLACE","LAKEWOOD","CO",80228,"11600 WEST 2ND PLACE, LAKEWOOD, CO, 80228, USA",-105.132522,39.717988
"PARKVIEW MEDICAL CENTER INC",60020,"400 W 16TH STREET","PUEBLO","CO",81003,"400 W 16TH STREET, PUEBLO, CO, 81003, USA",-104.611781,38.281695
"UNIVERSITY COLO HEALTH MEMORIAL HOSPITAL CENTRAL",60022,"1400 E BOULDER ST","COLORADO SPRINGS","CO",80909,"1400 E BOULDER ST, COLORADO SPRINGS, CO, 80909, USA",-104.799416,38.838822
"ST MARYS  MEDICAL CENTER",60023,"2635 N 7TH STREET","GRAND JUNCTION","CO",81502,"2635 N 7TH STREET, GRAND JUNCTION, CO, 81502, USA",-108.561209,39.089959
"SWEDISH MEDICAL CENTER",60034,"501 E HAMPDEN AVENUE","ENGLEWOOD","CO",80113,"501 E HAMPDEN AVENUE, ENGLEWOOD, CO, 80113, USA",-104.981693,39.653138
"CENTURA HEALTH-PORTER ADVENTIST HOSPITAL",60064,"2525 S DOWNING ST","DENVER","CO",80210,"2525 S DOWNING ST, DENVER, CO, 80210, USA",-104.973541,39.670841
"MEDICAL CENTER OF THE ROCKIES",60119,"2500 ROCKY MOUNTAIN AVENUE","LOVELAND","CO",80538,"2500 ROCKY MOUNTAIN AVENUE, LOVELAND, CO, 80538, USA",-105.001862,40.422015
"ST FRANCIS HOSPITAL & MEDICAL CENTER",70002,"114 WOODLAND STREET","HARTFORD","CT",6105,"114 WOODLAND STREET, HARTFORD, CT, 6105, USA",-95.444033,31.329103
"CHRISTIANA CARE HEALTH SERVICES, INC.",80001,"4755 OGLETOWN-STANTON ROAD","NEWARK","DE",19718,"4755 OGLETOWN-STANTON ROAD, NEWARK, DE, 19718, USA",-75.679846,39.686776
"BAYHEALTH - KENT GENERAL HOSPITAL",80004,"640 S STATE STREET","DOVER","DE",19901,"640 S STATE STREET, DOVER, DE, 19901, USA",-75.522345,39.151563
"GEORGE WASHINGTON UNIV HOSPITAL",90001,"900 23RD ST NW","WASHINGTON","DC",20037,"900 23RD ST NW, WASHINGTON, DC, 20037, USA",-77.050128,38.900698
"MEDSTAR GEORGETOWN UNIVERSITY HOSPITAL",90004,"3800 RESERVOIR RD","WASHINGTON","DC",20007,"3800 RESERVOIR RD, WASHINGTON, DC, 20007, USA",-77.074117,38.912584
"UF HEALTH JACKSONVILLE",100001,"655 W 8TH ST","JACKSONVILLE","FL",32209,"655 W 8TH ST, JACKSONVILLE, FL, 32209, USA",-81.663345,30.346619
"BETHESDA HOSPITAL EAST",100002,"2815 S SEACREST BLVD","BOYNTON BEACH","FL",33435,"2815 S SEACREST BLVD, BOYNTON BEACH, FL, 33435, USA",-80.069218,26.50336
"ORLANDO HEALTH",100006,"52 W UNDERWOOD ST","ORLANDO","FL",32806,"52 W UNDERWOOD ST, ORLANDO, FL, 32806, USA",-81.378043,28.526812
"UNIVERSITY OF MIAMI HOSPITAL",100009,"1400 NW 12TH AVE","MIAMI","FL",33136,"1400 NW 12TH AVE, MIAMI, FL, 33136, USA",-80.215003,25.787594
"LEE MEMORIAL HOSPITAL",100012,"2776 CLEVELAND AVE","FORT MYERS","FL",33901,"2776 CLEVELAND AVE, FORT MYERS, FL, 33901, USA",-81.872282,26.626605
"HALIFAX HEALTH MEDICAL CENTER",100017,"303 N CLYDE MORRIS BLVD","DAYTONA BEACH","FL",32114,"303 N CLYDE MORRIS BLVD, DAYTONA BEACH, FL, 32114, USA",-81.05431,29.19863
"HOLMES REGIONAL MEDICAL CENTER",100019,"1350 S HICKORY ST","MELBOURNE","FL",32901,"1350 S HICKORY ST, MELBOURNE, FL, 32901, USA",-80.612867,28.069426
"NORTH SHORE MEDICAL CENTER",100029,"1100 NW 95TH ST","MIAMI","FL",33150,"1100 NW 95TH ST, MIAMI, FL, 33150, USA",-80.214739,25.86156
"BAYFRONT HEALTH - ST PETERSBURG",100032,"701 6TH ST S","SAINT PETERSBURG","FL",33701,"701 6TH ST S, SAINT PETERSBURG, FL, 33701, USA",-82.641605,27.7631
"MOUNT SINAI MEDICAL CENTER",100034,"4300 ALTON RD","MIAMI BEACH","FL",33140,"4300 ALTON RD, MIAMI BEACH, FL, 33140, USA",-80.137875,25.814925
"MEMORIAL REGIONAL HOSPITAL",100038,"3501 JOHNSON ST","HOLLYWOOD","FL",33021,"3501 JOHNSON ST, HOLLYWOOD, FL, 33021, USA",-80.179859,26.018252
"BROWARD HEALTH MEDICAL CENTER",100039,"1600 S ANDREWS AVE","FORT LAUDERDALE","FL",33316,"1600 S ANDREWS AVE, FORT LAUDERDALE, FL, 33316, USA",-80.142373,26.101934
"FLORIDA HOSPITAL WATERMAN",100057,"1000 WATERMAN WAY","TAVARES","FL",32778,"1000 WATERMAN WAY, TAVARES, FL, 32778, USA",-81.731298,28.799871
"ST JOSEPHS HOSPITAL",100075,"3001 W MARTIN LUTHER KING JR BLVD","TAMPA","FL",33677,"3001 W MARTIN LUTHER KING JR BLVD, TAMPA, FL, 33677, USA",-82.478445,27.981246
"JFK MEDICAL CENTER",100080,"5301 S CONGRESS AVE","ATLANTIS","FL",33462,"5301 S CONGRESS AVE, ATLANTIS, FL, 33462, USA",-80.089738,26.600643
"SARASOTA MEMORIAL HOSPITAL",100087,"1700 S TAMIAMI TRL","SARASOTA","FL",34239,"1700 S TAMIAMI TRL, SARASOTA, FL, 34239, USA",-82.529677,27.318258
"BAPTIST MEDICAL CENTER JACKSONVILLE",100088,"800 PRUDENTIAL DR","JACKSONVILLE","FL",32207,"800 PRUDENTIAL DR, JACKSONVILLE, FL, 32207, USA",-81.664419,30.316281
"MORTON PLANT HOSPITAL",100127,"300 PINELLAS ST","CLEARWATER","FL",33756,"300 PINELLAS ST, CLEARWATER, FL, 33756, USA",-82.803992,27.951812
"AVENTURA HOSPITAL AND MEDICAL CENTER",100131,"20900 BISCAYNE BLVD","AVENTURA","FL",33180,"20900 BISCAYNE BLVD, AVENTURA, FL, 33180, USA",-80.139575,25.961731
"TALLAHASSEE MEMORIAL HOSPITAL",100135,"1300 MICCOSUKEE RD","TALLAHASSEE","FL",32308,"1300 MICCOSUKEE RD, TALLAHASSEE, FL, 32308, USA",-84.262418,30.45551
"LAKELAND REGIONAL MEDICAL CENTER",100157,"1324 LAKELAND HILLS BLVD","LAKELAND","FL",33805,"1324 LAKELAND HILLS BLVD, LAKELAND, FL, 33805, USA",-81.953321,28.061191
"PLANTATION GENERAL HOSPITAL",100167,"401 NW 42ND AVE","PLANTATION","FL",33317,"401 NW 42ND AVE, PLANTATION, FL, 33317, USA",-80.204102,26.126459
"BOCA RATON REGIONAL HOSPITAL",100168,"800 MEADOWS RD","BOCA RATON","FL",33486,"800 MEADOWS RD, BOCA RATON, FL, 33486, USA",-80.102759,26.35937
"FLORIDA HOSPITAL TAMPA",100173,"3100 E FLETCHER AVE","TAMPA","FL",33613,"3100 E FLETCHER AVE, TAMPA, FL, 33613, USA",-82.42289,28.069167
"PALM BEACH GARDENS MEDICAL CENTER",100176,"3360 BURNS RD","PALM BEACH GARDENS","FL",33410,"3360 BURNS RD, PALM BEACH GARDENS, FL, 33410, USA",-80.087393,26.830601
"MEMORIAL HOSPITAL JACKSONVILLE",100179,"3625 UNIVERSITY BLVD S","JACKSONVILLE","FL",32216,"3625 UNIVERSITY BLVD S, JACKSONVILLE, FL, 32216, USA",-81.602404,30.287638
"KENDALL REGIONAL MEDICAL CENTER",100209,"11750 BIRD RD","MIAMI","FL",33175,"11750 BIRD RD, MIAMI, FL, 33175, USA",-80.423682,25.72894
"OCALA REGIONAL MEDICAL CENTER",100212,"1431 SW 1ST AVE","OCALA","FL",34478,"1431 SW 1ST AVE, OCALA, FL, 34478, USA",-82.137801,29.175722
"NORTHSIDE HOSPITAL",100238,"6000 49TH ST N","SAINT PETERSBURG","FL",33709,"6000 49TH ST N, SAINT PETERSBURG, FL, 33709, USA",-82.699923,27.82629
"GULF COAST REGIONAL MEDICAL CENTER",100242,"449 W 23RD ST","PANAMA CITY","FL",32405,"449 W 23RD ST, PANAMA CITY, FL, 32405, USA",-85.667344,30.18963
"LAWNWOOD REGIONAL MEDICAL CENTER & HEART INSTITUTE",100246,"1700 S 23RD ST","FORT PIERCE","FL",34950,"1700 S 23RD ST, FORT PIERCE, FL, 34950, USA",-80.347389,27.43059
"REGIONAL MEDICAL CENTER BAYONET POINT",100256,"14000 FIVAY RD","HUDSON","FL",34667,"14000 FIVAY RD, HUDSON, FL, 34667, USA",-82.690837,28.362245
"DELRAY MEDICAL CENTER",100258,"5352 LINTON BLVD","DELRAY BEACH","FL",33484,"5352 LINTON BLVD, DELRAY BEACH, FL, 33484, USA",-80.127291,26.439383
"MEMORIAL HOSPITAL WEST",100281,"703 N FLAMINGO RD","PEMBROKE PINES","FL",33028,"703 N FLAMINGO RD, PEMBROKE PINES, FL, 33028, USA",-80.312095,26.01341
"ST MARY'S MEDICAL CENTER",100288,"901 45TH ST","WEST PALM BEACH","FL",33407,"901 45TH ST, WEST PALM BEACH, FL, 33407, USA",-80.062798,26.753118
"CLEVELAND CLINIC HOSPITAL",100289,"3100 WESTON RD","WESTON","FL",33331,"3100 WESTON RD, WESTON, FL, 33331, USA",-80.367356,26.081437
"UNIVERSITY HOSPITAL",110028,"1350 WALTON WAY","AUGUSTA","GA",30901,"1350 WALTON WAY, AUGUSTA, GA, 30901, USA",-81.98277,33.473714
"NORTHEAST GEORGIA MEDICAL CENTER, INC",110029,"743 SPRING STREET","GAINESVILLE","GA",30501,"743 SPRING STREET, GAINESVILLE, GA, 30501, USA",-83.7995,34.312331
"AU MEDICAL CENTER",110034,"1120 15TH STREET","AUGUSTA","GA",30912,"1120 15TH STREET, AUGUSTA, GA, 30912, USA",-81.990145,33.472603
"WELLSTAR KENNESTONE HOSPITAL",110035,"677 CHURCH STREET","MARIETTA","GA",30060,"677 CHURCH STREET, MARIETTA, GA, 30060, USA",-84.558123,33.978879
"MEMORIAL HEALTH UNIV MED CEN, INC",110036,"4700 WATERS AVENUE","SAVANNAH","GA",31403,"4700 WATERS AVENUE, SAVANNAH, GA, 31403, USA",-81.091554,32.03223
"MIDTOWN MEDICAL CENTER",110064,"710 CENTER ST BOX 951","COLUMBUS","GA",31901,"710 CENTER ST BOX 951, COLUMBUS, GA, 31901, USA",-84.97823,32.472864
"EMORY UNIVERSITY HOSPITAL MIDTOWN",110078,"550 PEACHTREE STREET,  NE","ATLANTA","GA",30308,"550 PEACHTREE STREET,  NE, ATLANTA, GA, 30308, USA",-84.387547,33.762256
"GRADY MEMORIAL HOSPITAL",110079,"80 JESSE HILL, JR DRIVE SE","ATLANTA","GA",30303,"80 JESSE HILL, JR DRIVE SE, ATLANTA, GA, 30303, USA",-84.378205,33.67536
"SAINT JOSEPH'S HOSPITAL OF ATLANTA, INC",110082,"5665 PEACHTREE DUNWOODY ROAD","ATLANTA","GA",30342,"5665 PEACHTREE DUNWOODY ROAD, ATLANTA, GA, 30342, USA",-84.351759,33.908588
"MEDICAL CENTER, NAVICENT HEALTH (THE)",110107,"777 HEMLOCK STREET","MACON","GA",31201,"777 HEMLOCK STREET, MACON, GA, 31201, USA",-83.636072,32.833041
"WELLSTAR ATLANTA MEDICAL CENTER",110115,"303 PARKWAY DRIVE, NE","ATLANTA","GA",30312,"303 PARKWAY DRIVE, NE, ATLANTA, GA, 30312, USA",-84.373949,33.763244
"ST FRANCIS HOSPITAL",110129,"2122 MANCHESTER EXPRESSWAY","COLUMBUS","GA",31995,"2122 MANCHESTER EXPRESSWAY, COLUMBUS, GA, 31995, USA",-84.962203,32.506917
"NORTHSIDE HOSPITAL",110161,"1000 JOHNSON FERRY ROAD, NE","ATLANTA","GA",30342,"1000 JOHNSON FERRY ROAD, NE, ATLANTA, GA, 30342, USA",-84.354962,33.907801
"DOCTORS HOSPITAL",110177,"3651 WHEELER ROAD","AUGUSTA","GA",30909,"3651 WHEELER ROAD, AUGUSTA, GA, 30909, USA",-82.092587,33.482729
"THE QUEENS MEDICAL CENTER",120001,"1301 PUNCHBOWL ST","HONOLULU","HI",96813,"1301 PUNCHBOWL ST, HONOLULU, HI, 96813, USA",-157.8551,21.307644
"KOOTENAI HEALTH",130049,"2003 KOOTENAI HEALTH WAY","COEUR D'ALENE","ID",83814,"2003 KOOTENAI HEALTH WAY, COEUR D'ALENE, ID, 83814, USA",-116.581785,47.319896
"PRESENCE SAINT JOSEPH MEDICAL CENTER",140007,"333 N MADISON","JOLIET","IL",60435,"333 N MADISON, JOLIET, IL, 60435, USA",-88.134684,41.528034
"EVANSTON HOSPITAL",140010,"2650 RIDGE AVE","EVANSTON","IL",60201,"2650 RIDGE AVE, EVANSTON, IL, 60201, USA",-87.683269,42.065331
"MT SINAI HOSPITAL MEDICAL CENTER",140018,"15TH STREET AT CALIFORNIA","CHICAGO","IL",60608,"15TH STREET AT CALIFORNIA, CHICAGO, IL, 60608, USA",-87.69546,41.852367
"ST JOHNS HOSPITAL",140053,"800 E CARPENTER ST","SPRINGFIELD","IL",62769,"800 E CARPENTER ST, SPRINGFIELD, IL, 62769, USA",-89.644865,39.807273
"MACNEAL  HOSPITAL",140054,"3249 SOUTH OAK PARK AVENUE","BERWYN","IL",60402,"3249 SOUTH OAK PARK AVENUE, BERWYN, IL, 60402, USA",-87.792888,41.832693
"SAINT FRANCIS MEDICAL CENTER",140067,"530 NE GLEN OAK AVE","PEORIA","IL",61637,"530 NE GLEN OAK AVE, PEORIA, IL, 61637, USA",-89.587103,40.704074
"THE CARLE FOUNDATION HOSPITAL",140091,"611 WEST PARK STREET","URBANA","IL",61801,"611 WEST PARK STREET, URBANA, IL, 61801, USA",-88.21455,40.11731
"RUSH UNIVERSITY MEDICAL CENTER",140119,"1653 WEST CONGRESS PARKWAY","CHICAGO","IL",60612,"1653 WEST CONGRESS PARKWAY, CHICAGO, IL, 60612, USA",-87.668004,41.875229
"DECATUR MEMORIAL HOSPITAL",140135,"2300 NORTH EDWARD STREET","DECATUR","IL",62526,"2300 NORTH EDWARD STREET, DECATUR, IL, 62526, USA",-88.960814,39.866038
"MEMORIAL MEDICAL CENTER",140148,"701 N FIRST ST","SPRINGFIELD","IL",62781,"701 N FIRST ST, SPRINGFIELD, IL, 62781, USA",-89.654651,39.808566
"UNIVERSITY OF ILLINOIS HOSPITAL",140150,"1740 WEST TAYLOR ST SUITE 1400","CHICAGO","IL",60612,"1740 WEST TAYLOR ST SUITE 1400, CHICAGO, IL, 60612, USA",-87.670332,41.869278
"ADVOCATE LUTHERAN GENERAL HOSPITAL",140223,"1775 DEMPSTER ST","PARK RIDGE","IL",60068,"1775 DEMPSTER ST, PARK RIDGE, IL, 60068, USA",-87.863963,42.039183
"SAINT ANTHONY MEDICAL CENTER",140233,"5666 EAST STATE STREET","ROCKFORD","IL",61108,"5666 EAST STATE STREET, ROCKFORD, IL, 61108, USA",-89.006499,42.266009
"CENTRAL DUPAGE HOSPITAL",140242,"25 NORTH WINFIELD ROAD","WINFIELD","IL",60190,"25 NORTH WINFIELD ROAD, WINFIELD, IL, 60190, USA",-88.156774,41.87571
"ADVOCATE GOOD SHEPHERD HOSPITAL",140291,"450 WEST HIGHWAY 22","BARRINGTON","IL",60010,"450 WEST HIGHWAY 22, BARRINGTON, IL, 60010, USA",-88.198869,42.194181
"LUTHERAN HOSPITAL OF INDIANA",150017,"7950 W JEFFERSON BLVD","FORT WAYNE","IN",46804,"7950 W JEFFERSON BLVD, FORT WAYNE, IN, 46804, USA",-85.243363,41.039206
"PARKVIEW REGIONAL MEDICAL CENTER",150021,"11109 PARKVIEW PLAZA DRIVE","FORT WAYNE","IN",46845,"11109 PARKVIEW PLAZA DRIVE, FORT WAYNE, IN, 46845, USA",-85.150938,41.069299
"ESKENAZI HEALTH",150024,"720 ESKENAZI AVENUE","INDIANAPOLIS","IN",46202,"720 ESKENAZI AVENUE, INDIANAPOLIS, IN, 46202, USA",-86.163477,39.784102
"INDIANA UNIVERSITY HEALTH",150056,"1701 N SENATE BLVD","INDIANAPOLIS","IN",46202,"1701 N SENATE BLVD, INDIANAPOLIS, IN, 46202, USA",-86.163041,39.788371
"MEMORIAL HOSPITAL OF SOUTH BEND",150058,"615 N MICHIGAN ST","SOUTH BEND","IN",46601,"615 N MICHIGAN ST, SOUTH BEND, IN, 46601, USA",-86.25056,41.683273
"DEACONESS HOSPITAL INC",150082,"600 MARY ST","EVANSVILLE","IN",47747,"600 MARY ST, EVANSVILLE, IN, 47747, USA",-87.5707,37.982937
"FRANCISCAN HEALTH INDIANAPOLIS",150162,"8111 S EMERSON AVE","INDIANAPOLIS","IN",46237,"8111 S EMERSON AVE, INDIANAPOLIS, IN, 46237, USA",-86.082577,39.65043
"IOWA METHODIST MEDICAL CENTER",160082,"1200 PLEASANT STREET","DES MOINES","IA",50309,"1200 PLEASANT STREET, DES MOINES, IA, 50309, USA",-93.636506,41.589859
"MERCY MEDICAL CENTER-DES MOINES",160083,"1111 6TH AVE","DES MOINES","IA",50314,"1111 6TH AVE, DES MOINES, IA, 50314, USA",-93.625587,41.597758
"MERCY MEDICAL CENTER-SIOUX CITY",160153,"801 5TH ST","SIOUX CITY","IA",51101,"801 5TH ST, SIOUX CITY, IA, 51101, USA",-96.400857,42.495265
"UNIVERSITY OF KANSAS HOSPITAL",170040,"3901 RAINBOW BLVD","KANSAS CITY","KS",66103,"3901 RAINBOW BLVD, KANSAS CITY, KS, 66103, USA",-94.611755,39.057379
"STORMONT VAIL HOSPITAL",170086,"1500 SW 10TH AVENUE","TOPEKA","KS",66604,"1500 SW 10TH AVENUE, TOPEKA, KS, 66604, USA",-95.695641,39.05112
"VIA CHRISTI HOSPITALS WICHITA, INC",170122,"929 NORTH ST FRANCIS STREET","WICHITA","KS",67214,"929 NORTH ST FRANCIS STREET, WICHITA, KS, 67214, USA",-97.330996,37.737462
"WESLEY MEDICAL CENTER",170123,"550 N HILLSIDE STREET","WICHITA","KS",67214,"550 N HILLSIDE STREET, WICHITA, KS, 67214, USA",-97.298972,37.695617
"SAINT JOSEPH HOSPITAL",180010,"ONE SAINT JOSEPH DRIVE","LEXINGTON","KY",40504,"ONE SAINT JOSEPH DRIVE, LEXINGTON, KY, 40504, USA",-84.512289,38.06682
"PIKEVILLE MEDICAL CENTER",180044,"911 BYPASS ROAD","PIKEVILLE","KY",41501,"911 BYPASS ROAD, PIKEVILLE, KY, 41501, USA",-82.526777,37.480514
"NORTON HOSPITAL / NORTON HEALTHCARE PAVILION / NOR",180088,"200 EAST CHESTNUT STREET","LOUISVILLE","KY",40202,"200 EAST CHESTNUT STREET, LOUISVILLE, KY, 40202, USA",-85.751827,38.248277
"BAPTIST HEALTH LOUISVILLE",180130,"4000 KRESGE WAY","LOUISVILLE","KY",40207,"4000 KRESGE WAY, LOUISVILLE, KY, 40207, USA",-85.637571,38.23979
"UNIVERSITY OF LOUISVILLE HOSPITAL",180141,"530 SOUTH JACKSON STREET","LOUISVILLE","KY",40202,"530 SOUTH JACKSON STREET, LOUISVILLE, KY, 40202, USA",-85.744872,38.248743
"LAFAYETTE GENERAL MEDICAL CENTER",190002,"1214 COOLIDGE AVENUE","LAFAYETTE","LA",70503,"1214 COOLIDGE AVENUE, LAFAYETTE, LA, 70503, USA",-92.018675,30.202209
"UNIVERSITY MEDICAL CENTER NEW ORLEANS",190005,"2000 CANAL STREET","NEW ORLEANS","LA",70112,"2000 CANAL STREET, NEW ORLEANS, LA, 70112, USA",-90.080568,29.960825
"RAPIDES REGIONAL MEDICAL CENTER",190026,"211 4TH STREET","ALEXANDRIA","LA",71301,"211 4TH STREET, ALEXANDRIA, LA, 71301, USA",-92.450192,31.314906
"OCHSNER MEDICAL CENTER",190036,"1516 JEFFERSON HWY","NEW ORLEANS","LA",70121,"1516 JEFFERSON HWY, NEW ORLEANS, LA, 70121, USA",-90.144607,29.962602
"OUR LADY OF THE LAKE REGIONAL MEDICAL CENTER",190064,"5000 HENNESSY BLVD","BATON ROUGE","LA",70808,"5000 HENNESSY BLVD, BATON ROUGE, LA, 70808, USA",-91.10955,30.40362
"UNIVERSITY HEALTH SHREVEPORT",190098,"1541 KINGS HIGHWAY","SHREVEPORT","LA",71103,"1541 KINGS HIGHWAY, SHREVEPORT, LA, 71103, USA",-93.7632,32.481918
"WILLIS KNIGHTON MEDICAL CENTER",190111,"2600 GREENWOOD ROAD","SHREVEPORT","LA",71103,"2600 GREENWOOD ROAD, SHREVEPORT, LA, 71103, USA",-93.778669,32.483984
"TULANE MEDICAL CENTER",190176,"1415 TULANE AVE","NEW ORLEANS","LA",70112,"1415 TULANE AVE, NEW ORLEANS, LA, 70112, USA",-90.076049,29.955341
"MAINE MEDICAL CENTER",200009,"22 BRAMHALL ST","PORTLAND","ME",4102,"22 BRAMHALL ST, PORTLAND, ME, 4102, USA",-82.38192,36.839872
"PRINCE GEORGES  HOSPITAL CENTER",210003,"3001 HOSPITAL DRIVE","CHEVERLY","MD",20785,"3001 HOSPITAL DRIVE, CHEVERLY, MD, 20785, USA",-76.924711,38.928646
"HOLY CROSS HOSPITAL",210004,"1500 FOREST GLEN ROAD","SILVER SPRING","MD",20910,"1500 FOREST GLEN ROAD, SILVER SPRING, MD, 20910, USA",-77.032943,39.016127
"JOHNS HOPKINS HOSPITAL, THE",210009,"600 NORTH  WOLFE STREET","BALTIMORE","MD",21287,"600 NORTH  WOLFE STREET, BALTIMORE, MD, 21287, USA",-76.59069,39.295299
"SINAI HOSPITAL OF BALTIMORE",210012,"2401 WEST BELVEDERE AVENUE","BALTIMORE","MD",21215,"2401 WEST BELVEDERE AVENUE, BALTIMORE, MD, 21215, USA",-76.665038,39.353279
"BOSTON MEDICAL CENTER CORPORATION-",220031,"1 BOSTON MEDICAL CENTER PLACE","BOSTON","MA",2118,"1 BOSTON MEDICAL CENTER PLACE, BOSTON, MA, 2118, USA",-71.07551,42.334691
"SOUTHCOAST HOSPITAL GROUP, INC",220074,"363 HIGHLAND AVENUE","FALL RIVER","MA",2720,"363 HIGHLAND AVENUE, FALL RIVER, MA, 2720, USA",-71.146721,41.710377
"BAYSTATE MEDICAL CENTER",220077,"759 CHESTNUT STREET","SPRINGFIELD","MA",1199,"759 CHESTNUT STREET, SPRINGFIELD, MA, 1199, USA",-72.604261,42.119083
"BETH ISRAEL DEACONESS MEDICAL CENTER",220086,"330 BROOKLINE AVENUE","BOSTON","MA",2215,"330 BROOKLINE AVENUE, BOSTON, MA, 2215, USA",-71.105846,42.34034
"UMASS MEMORIAL MEDICAL CENTER INC",220163,"55 LAKE AVENUE NORTH","WORCESTER","MA",1655,"55 LAKE AVENUE NORTH, WORCESTER, MA, 1655, USA",-71.758855,42.271796
"LAHEY HOSPITAL & MEDICAL CENTER, BURLINGTON",220171,"41 & 45 MALL ROAD","BURLINGTON","MA",1803,"41 & 45 MALL ROAD, BURLINGTON, MA, 1803, USA",-71.201539,42.504844
"BRONSON METHODIST HOSPITAL",230017,"601 JOHN STREET","KALAMAZOO","MI",49007,"601 JOHN STREET, KALAMAZOO, MI, 49007, USA",-85.581372,42.286175
"PROVIDENCE - PROVIDENCE PARK HOSPITAL",230019,"16001 W NINE MILE RD","SOUTHFIELD","MI",48075,"16001 W NINE MILE RD, SOUTHFIELD, MI, 48075, USA",-83.204795,42.459139
"BEAUMONT HOSPITAL - DEARBORN",230020,"18101 OAKWOOD BLVD","DEARBORN","MI",48124,"18101 OAKWOOD BLVD, DEARBORN, MI, 48124, USA",-83.213453,42.292514
"LAKELAND HOSPITAL, ST JOSEPH",230021,"1234 NAPIER AVENUE","ST JOSEPH","MI",49085,"1234 NAPIER AVENUE, ST JOSEPH, MI, 49085, USA",-86.479036,42.082491
"SINAI-GRACE HOSPITAL",230024,"6071 W OUTER DRIVE","DETROIT","MI",48235,"6071 W OUTER DRIVE, DETROIT, MI, 48235, USA",-83.18201,42.420342
"ST JOSEPH MERCY OAKLAND",230029,"44405 WOODWARD AVE","PONTIAC","MI",48341,"44405 WOODWARD AVE, PONTIAC, MI, 48341, USA",-83.274429,42.614123
"COVENANT MEDICAL CENTER",230070,"1447 N HARRISON","SAGINAW","MI",48602,"1447 N HARRISON, SAGINAW, MI, 48602, USA",-83.955619,43.428674
"ST MARY'S OF MICHIGAN MEDICAL CENTER",230077,"800 S WASHINGTON AVENUE","SAGINAW","MI",48601,"800 S WASHINGTON AVENUE, SAGINAW, MI, 48601, USA",-83.941974,43.426078
"HARPER UNIVERSITY HOSPITAL",230104,"3990 JOHN R STREET","DETROIT","MI",48201,"3990 JOHN R STREET, DETROIT, MI, 48201, USA",-83.05749,42.350909
"BORGESS MEDICAL CENTER",230117,"1521 GULL ROAD","KALAMAZOO","MI",49048,"1521 GULL ROAD, KALAMAZOO, MI, 49048, USA",-85.560654,42.305075
"BEAUMONT HOSPITAL, ROYAL OAK",230130,"3601 W THIRTEEN MILE RD","ROYAL OAK","MI",48073,"3601 W THIRTEEN MILE RD, ROYAL OAK, MI, 48073, USA",-83.192038,42.517731
"HURLEY MEDICAL CENTER",230132,"ONE HURLEY PLAZA","FLINT","MI",48503,"ONE HURLEY PLAZA, FLINT, MI, 48503, USA",-83.706018,43.021454
"MCLAREN FLINT",230141,"401 S BALLENGER HIGHWAY","FLINT","MI",48532,"401 S BALLENGER HIGHWAY, FLINT, MI, 48532, USA",-83.733784,43.015895
"BEAUMONT HOSPITAL - FARMINGTON HILLS",230151,"28050 GRAND RIVER AVENUE","FARMINGTON HILLS","MI",48336,"28050 GRAND RIVER AVENUE, FARMINGTON HILLS, MI, 48336, USA",-83.324773,42.443756
"ST JOSEPH MERCY HOSPITAL",230156,"5301 E HURON RIVER DR","ANN ARBOR","MI",48106,"5301 E HURON RIVER DR, ANN ARBOR, MI, 48106, USA",-83.654061,42.259982
"ST JOHN HOSPITAL AND MEDICAL CENTER",230165,"22101 MOROSS RD","DETROIT","MI",48236,"22101 MOROSS RD, DETROIT, MI, 48236, USA",-82.915236,42.418625
"ST JOHN MACOMB-OAKLAND HOSPITAL-MACOMB CENTER",230195,"11800 EAST TWELVE MILE ROAD","WARREN","MI",48093,"11800 EAST TWELVE MILE ROAD, WARREN, MI, 48093, USA",-83.006613,42.514886
"MCLAREN MACOMB",230227,"1000 HARRINGTON BLVD","MOUNT CLEMENS","MI",48043,"1000 HARRINGTON BLVD, MOUNT CLEMENS, MI, 48043, USA",-82.896748,42.586716
"EDWARD W SPARROW HOSPITAL",230230,"1215 E MICHIGAN AVENUE","LANSING","MI",48912,"1215 E MICHIGAN AVENUE, LANSING, MI, 48912, USA",-84.534776,42.733588
"DETROIT RECEIVING HOSPITAL & UNIV HEALTH CENTER",230273,"4201 ST ANTOINE ST - 3M","DETROIT","MI",48201,"4201 ST ANTOINE ST - 3M, DETROIT, MI, 48201, USA",-83.067864,42.348853
"NORTH MEMORIAL MEDICAL CENTER",240001,"3300 OAKDALE NORTH","ROBBINSDALE","MN",55422,"3300 OAKDALE NORTH, ROBBINSDALE, MN, 55422, USA",-93.321389,45.01459
"ESSENTIA HEALTH ST MARY'S MEDICAL CENTER",240002,"407 EAST THIRD STREET","DULUTH","MN",55805,"407 EAST THIRD STREET, DULUTH, MN, 55805, USA",-92.096502,46.79288
"HENNEPIN COUNTY MEDICAL CENTER 1",240004,"701 PARK AVENUE","MINNEAPOLIS","MN",55415,"701 PARK AVENUE, MINNEAPOLIS, MN, 55415, USA",-93.262679,44.972865
"UNITED HOSPITAL",240038,"333 NORTH SMITH AVENUE","SAINT PAUL","MN",55102,"333 NORTH SMITH AVENUE, SAINT PAUL, MN, 55102, USA",-93.107227,44.942561
"REGIONS HOSPITAL",240106,"640 JACKSON STREET","SAINT PAUL","MN",55101,"640 JACKSON STREET, SAINT PAUL, MN, 55101, USA",-93.096336,44.955285
"UNIVERSITY OF MISSISSIPPI MED CENTER",250001,"2500 N STATE ST","JACKSON","MS",39216,"2500 N STATE ST, JACKSON, MS, 39216, USA",-90.175626,32.328716
"NORTH MISSISSIPPI MEDICAL CENTER",250004,"830 S GLOSTER","TUPELO","MS",38801,"830 S GLOSTER, TUPELO, MS, 38801, USA",-88.717468,34.243535
"ST DOMINIC-JACKSON MEMORIAL HOSPITAL",250048,"969 LAKELAND DR","JACKSON","MS",39216,"969 LAKELAND DR, JACKSON, MS, 39216, USA",-90.166756,32.333836
"MERIT HEALTH CENTRAL",250072,"1850 CHADWICK DR","JACKSON","MS",39204,"1850 CHADWICK DR, JACKSON, MS, 39204, USA",-90.255279,32.286785
"FORREST GENERAL HOSPITAL",250078,"6051 US HIGHWAY 49","HATTIESBURG","MS",39404,"6051 US HIGHWAY 49, HATTIESBURG, MS, 39404, USA",-89.325042,31.315502
"BAPTIST MEMORIAL HOSPITAL DESOTO",250141,"7601 SOUTHCREST PARKWAY","SOUTHAVEN","MS",38671,"7601 SOUTHCREST PARKWAY, SOUTHAVEN, MS, 38671, USA",-89.995298,34.968194
"MERCY HOSPITAL ST LOUIS",260020,"615 NEW BALLAS ROAD","SAINT LOUIS","MO",63141,"615 NEW BALLAS ROAD, SAINT LOUIS, MO, 63141, USA",-90.443511,38.644409
"COX MEDICAL CENTERS",260040,"3801 SOUTH NATIONAL AVENUE","SPRINGFIELD","MO",65807,"3801 SOUTH NATIONAL AVENUE, SPRINGFIELD, MO, 65807, USA",-93.278006,37.144565
"MERCY HOSPITAL SPRINGFIELD",260065,"1235 E CHEROKEE","SPRINGFIELD","MO",65804,"1235 E CHEROKEE, SPRINGFIELD, MO, 65804, USA",-93.271549,37.178089
"ST ANTHONY'S MEDICAL CENTER",260077,"10010 KENNERLY ROAD","SAINT LOUIS","MO",63128,"10010 KENNERLY ROAD, SAINT LOUIS, MO, 63128, USA",-90.377335,38.509251
"SSM HEALTH DEPAUL HOSPITAL ST LOUIS",260104,"12303 DEPAUL DRIVE","BRIDGETON","MO",63044,"12303 DEPAUL DRIVE, BRIDGETON, MO, 63044, USA",-90.430431,38.749757
"SSM HEALTH SAINT LOUIS UNIVERSITY HOSPITAL",260105,"3635 VISTA AVE","SAINT LOUIS","MO",63110,"3635 VISTA AVE, SAINT LOUIS, MO, 63110, USA",-90.239635,38.622575
"MISSOURI BAPTIST MEDICAL CENTER",260108,"3015 N BALLAS RD","TOWN AND COUNTRY","MO",63131,"3015 N BALLAS RD, TOWN AND COUNTRY, MO, 63131, USA",-90.443531,38.634183
"FREEMAN HEALTH SYSTEM - FREEMAN WEST",260137,"1102 WEST 32ND STREET","JOPLIN","MO",64804,"1102 WEST 32ND STREET, JOPLIN, MO, 64804, USA",-94.524718,37.055122
"UNIVERSITY OF MISSOURI HEALTH CARE",260141,"ONE HOSPITAL DRIVE","COLUMBIA","MO",65212,"ONE HOSPITAL DRIVE, COLUMBIA, MO, 65212, USA",-91.964984,38.842625
"SAINT FRANCIS MEDICAL CENTER",260183,"211 ST FRANCIS DR","CAPE GIRARDEAU","MO",63703,"211 ST FRANCIS DR, CAPE GIRARDEAU, MO, 63703, USA",-89.572233,37.301653
"BILLINGS CLINIC HOSPITAL",270004,"2800 10TH AVE N","BILLINGS","MT",59101,"2800 10TH AVE N, BILLINGS, MT, 59101, USA",-108.514032,45.790504
"BRYAN MEDICAL CENTER",280003,"1600 SOUTH 48TH ST","LINCOLN","NE",68506,"1600 SOUTH 48TH ST, LINCOLN, NE, 68506, USA",-96.653608,40.796577
"METHODIST HOSPITAL",280040,"8303 DODGE ST","OMAHA","NE",68114,"8303 DODGE ST, OMAHA, NE, 68114, USA",-96.041409,41.259605
"CHI HEALTH CREIGHTON UNIVERSITY MEDICAL CENTER - B",280060,"7500 MERCY RD","OMAHA","NE",68124,"7500 MERCY RD, OMAHA, NE, 68124, USA",-96.028715,41.237905
"RENOWN REGIONAL MEDICAL CENTER",290001,"1155 MILL STREET","RENO","NV",89502,"1155 MILL STREET, RENO, NV, 89502, USA",-119.794848,39.523997
"SUNRISE HOSPITAL AND MEDICAL CENTER",290003,"3186 S MARYLAND PKWY","LAS VEGAS","NV",89109,"3186 S MARYLAND PKWY, LAS VEGAS, NV, 89109, USA",-115.136792,36.131837
"UNIVERSITY MEDICAL CENTER",290007,"1800 W CHARLESTON BLVD","LAS VEGAS","NV",89102,"1800 W CHARLESTON BLVD, LAS VEGAS, NV, 89102, USA",-115.167397,36.158887
"DESERT SPRINGS HOSPITAL",290022,"2075 EAST FLAMINGO ROAD","LAS VEGAS","NV",89119,"2075 EAST FLAMINGO ROAD, LAS VEGAS, NV, 89119, USA",-115.124551,36.114571
"ST ROSE DOMINICAN HOSPITALS - SIENA CAMPUS",290045,"3001 ST ROSE PARKWAY","HENDERSON","NV",89052,"3001 ST ROSE PARKWAY, HENDERSON, NV, 89052, USA",-115.100797,36.018331
"MARY HITCHCOCK MEMORIAL HOSPITAL",300003,"1 MEDICAL CENTER DRIVE","LEBANON","NH",3756,"1 MEDICAL CENTER DRIVE, LEBANON, NH, 3756, USA",-98.5,39.76
"HACKENSACK UNIVERSITY MEDICAL CENTER",310001,"30 PROSPECT AVE","HACKENSACK","NJ",7601,"30 PROSPECT AVE, HACKENSACK, NJ, 7601, USA",-74.478318,40.325679
"VALLEY HOSPITAL",310012,"223 N VAN DIEN AVENUE","RIDGEWOOD","NJ",7450,"223 N VAN DIEN AVENUE, RIDGEWOOD, NJ, 7450, USA",-74.101525,40.984746
"COOPER UNIVERSITY HOSPITAL",310014,"1 COOPER PLAZA","CAMDEN","NJ",8103,"1 COOPER PLAZA, CAMDEN, NJ, 8103, USA",-75.115808,39.940779
"MORRISTOWN MEDICAL CENTER",310015,"100 MADISON AVE","MORRISTOWN","NJ",7962,"100 MADISON AVE, MORRISTOWN, NJ, 7962, USA",-74.470832,40.788716
"ST JOSEPH'S REGIONAL MEDICAL CENTER",310019,"703 MAIN ST","PATERSON","NJ",7503,"703 MAIN ST, PATERSON, NJ, 7503, USA",-74.166967,40.902668
"VIRTUA WEST JERSEY HOSPITALS VOORHEES",310022,"100 BOWMAN DRIVE","VOORHEES","NJ",8043,"100 BOWMAN DRIVE, VOORHEES, NJ, 8043, USA",-75.174583,39.831916
"OUR LADY OF LOURDES MEDICAL CENTER",310029,"1600 HADDON AVENUE","CAMDEN","NJ",8103,"1600 HADDON AVENUE, CAMDEN, NJ, 8103, USA",-75.095346,39.926783
"DEBORAH HEART AND LUNG CENTER",310031,"200 TRENTON ROAD","BROWNS MILLS","NJ",8015,"200 TRENTON ROAD, BROWNS MILLS, NJ, 8015, USA",-74.585588,39.97632
"ROBERT WOOD JOHNSON UNIVERSITY HOSPITAL",310038,"ONE ROBERT WOOD JOHNSON PLACE","NEW BRUNSWICK","NJ",8901,"ONE ROBERT WOOD JOHNSON PLACE, NEW BRUNSWICK, NJ, 8901, USA",-74.447713,40.493379
"OVERLOOK MEDICAL CENTER",310051,"99 BEAUVOIR AVENUE","SUMMIT","NJ",7902,"99 BEAUVOIR AVENUE, SUMMIT, NJ, 7902, USA",-74.354271,40.712385
"ATLANTICARE REGIONAL MEDICAL CENTER - CITY CAMPUS",310064,"1925 PACIFIC AVENUE","ATLANTIC CITY","NJ",8401,"1925 PACIFIC AVENUE, ATLANTIC CITY, NJ, 8401, USA",-74.433578,39.357988
"JERSEY SHORE UNIVERSITY MEDICAL CENTER",310073,"1945 RTE 33","NEPTUNE","NJ",7754,"1945 RTE 33, NEPTUNE, NJ, 7754, USA",-74.042684,40.207222
"JERSEY CITY MEDICAL CENTER",310074,"355 GRAND STREET","JERSEY CITY","NJ",7302,"355 GRAND STREET, JERSEY CITY, NJ, 7302, USA",-74.049903,40.716629
"SAINT BARNABAS MEDICAL CENTER",310076,"94 OLD SHORT HILLS ROAD","LIVINGSTON","NJ",7039,"94 OLD SHORT HILLS ROAD, LIVINGSTON, NJ, 7039, USA",-74.312319,40.731053
"CAPITAL HEALTH SYSTEM-FULD CAMPUS",310092,"750 BRUNSWICK AVE","TRENTON","NJ",8638,"750 BRUNSWICK AVE, TRENTON, NJ, 8638, USA",-74.363688,40.398474
"JFK MEDICAL CTR - ANTHONY M. YELENCSICS COMMUNITY",310108,"65 JAMES STREET","EDISON","NJ",8818,"65 JAMES STREET, EDISON, NJ, 8818, USA",-74.346734,40.557099
"UNIVERSITY HOSPITAL",310119,"150 BERGEN ST","NEWARK","NJ",7101,"150 BERGEN ST, NEWARK, NJ, 7101, USA",-74.192146,40.740918
"UNM HOSPITAL",320001,"2211 LOMAS BOULEVARD NE","ALBUQUERQUE","NM",87106,"2211 LOMAS BOULEVARD NE, ALBUQUERQUE, NM, 87106, USA",-106.617721,35.087538
"KALEIDA HEALTH",330005,"726 EXCHANGE STREET, SUITE 522","BUFFALO","NY",14210,"726 EXCHANGE STREET, SUITE 522, BUFFALO, NY, 14210, USA",-78.851472,42.874841
"ALBANY MEDICAL CENTER HOSPITAL",330013,"43 NEW SCOTLAND AVENUE, MAIL CODE 34","ALBANY","NY",12208,"43 NEW SCOTLAND AVENUE, MAIL CODE 34, ALBANY, NY, 12208, USA",-73.801749,42.635094
"RICHMOND UNIVERSITY MEDICAL CENTER",330028,"355 BARD AVENUE","STATEN ISLAND","NY",10304,"355 BARD AVENUE, STATEN ISLAND, NY, 10304, USA",-74.084532,40.623038
"SOUTHSIDE HOSPITAL",330043,"301 EAST MAIN STREET","BAY SHORE","NY",11706,"301 EAST MAIN STREET, BAY SHORE, NY, 11706, USA",-73.240873,40.724855
"MOUNT SINAI WEST",330046,"1000 TENTH AVENUE","NEW YORK","NY",10019,"1000 TENTH AVENUE, NEW YORK, NY, 10019, USA",-73.987675,40.770347
"NEW YORK-PRESBYTERIAN/QUEENS",330055,"56-45 MAIN STREET","FLUSHING","NY",11355,"56-45 MAIN STREET, FLUSHING, NY, 11355, USA",-73.825984,40.747516
"ST PETER'S HOSPITAL",330057,"315 SOUTH MANNING BOULEVARD","ALBANY","NY",12208,"315 SOUTH MANNING BOULEVARD, ALBANY, NY, 12208, USA",-73.804082,42.657416
"NORTH SHORE UNIVERSITY HOSPITAL",330106,"300 COMMUNITY DRIVE","MANHASSET","NY",11030,"300 COMMUNITY DRIVE, MANHASSET, NY, 11030, USA",-73.703036,40.776257
"LENOX HILL HOSPITAL",330119,"100 EAST 77TH STREET","NEW YORK","NY",10021,"100 EAST 77TH STREET, NEW YORK, NY, 10021, USA",-73.951398,40.770073
"ROCHESTER GENERAL HOSPITAL",330125,"1425 PORTLAND AVENUE","ROCHESTER","NY",14621,"1425 PORTLAND AVENUE, ROCHESTER, NY, 14621, USA",-77.584536,43.193377
"ORANGE REGIONAL MEDICAL CENTER",330126,"707 EAST MAIN STREET","MIDDLETOWN","NY",10940,"707 EAST MAIN STREET, MIDDLETOWN, NY, 10940, USA",-74.368235,41.439941
"JACOBI MEDICAL CENTER",330127,"1400 PELHAM PARKWAY SOUTH","BRONX","NY",10461,"1400 PELHAM PARKWAY SOUTH, BRONX, NY, 10461, USA",-73.845614,40.857101
"ST JOSEPH'S HOSPITAL HEALTH CENTER",330140,"301 PROSPECT AVENUE","SYRACUSE","NY",13203,"301 PROSPECT AVENUE, SYRACUSE, NY, 13203, USA",-76.149091,43.055648
"STATEN ISLAND UNIVERSITY HOSPITAL",330160,"475 SEAVIEW AVENUE","STATEN ISLAND","NY",10305,"475 SEAVIEW AVENUE, STATEN ISLAND, NY, 10305, USA",-74.087355,40.583885
"NYU WINTHROP HOSPITAL",330167,"259 FIRST STREET","MINEOLA","NY",11501,"259 FIRST STREET, MINEOLA, NY, 11501, USA",-73.643525,40.741648
"MOUNT SINAI BETH ISRAEL/PETRIE CAMPUS",330169,"FIRST AVENUE AT 16TH STREET","NEW YORK","NY",10003,"FIRST AVENUE AT 16TH STREET, NEW YORK, NY, 10003, USA",-73.983176,40.73334
"ST FRANCIS HOSPITAL, ROSLYN",330182,"100 PORT WASHINGTON BOULEVARD","ROSLYN","NY",11576,"100 PORT WASHINGTON BOULEVARD, ROSLYN, NY, 11576, USA",-73.668804,40.805904
"MAIMONIDES MEDICAL CENTER",330194,"4802 TENTH AVENUE","BROOKLYN","NY",11219,"4802 TENTH AVENUE, BROOKLYN, NY, 11219, USA",-73.998207,40.63961
"LONG ISLAND JEWISH MEDICAL CENTER",330195,"270 - 05 76TH AVENUE","NEW HYDE PARK","NY",11040,"270 - 05 76TH AVENUE, NEW HYDE PARK, NY, 11040, USA",-73.693186,40.743157
"CONEY ISLAND HOSPITAL",330196,"2601 OCEAN PARKWAY","BROOKLYN","NY",11235,"2601 OCEAN PARKWAY, BROOKLYN, NY, 11235, USA",-73.966329,40.585895
"SOUTH NASSAU COMMUNITIES HOSPITAL",330198,"ONE HEALTHY WAY","OCEANSIDE","NY",11572,"ONE HEALTHY WAY, OCEANSIDE, NY, 11572, USA",-73.630248,40.653791
"NYU HOSPITALS CENTER",330214,"550 FIRST AVENUE","NEW YORK","NY",10016,"550 FIRST AVENUE, NEW YORK, NY, 10016, USA",-73.974583,40.742309
"ERIE COUNTY MEDICAL CENTER",330219,"462 GRIDER STREET","BUFFALO","NY",14215,"462 GRIDER STREET, BUFFALO, NY, 14215, USA",-78.829146,42.927248
"BROOKDALE HOSPITAL MEDICAL CENTER",330233,"1 BROOKDALE PLAZA","BROOKLYN","NY",11212,"1 BROOKDALE PLAZA, BROOKLYN, NY, 11212, USA",-73.912206,40.655322
"NEW YORK-PRESBYTERIAN BROOKLYN METHODIST HOSPITAL",330236,"506 SIXTH STREET","BROOKLYN","NY",11215,"506 SIXTH STREET, BROOKLYN, NY, 11215, USA",-73.979448,40.668221
"UNIVERSITY HOSPITAL S U N Y HEALTH SCIENCE CENTER",330241,"750 EAST ADAMS STREET","SYRACUSE","NY",13210,"750 EAST ADAMS STREET, SYRACUSE, NY, 13210, USA",-76.140546,43.042685
"MERCY HOSPITAL OF BUFFALO",330279,"565 ABBOTT ROAD","BUFFALO","NY",14220,"565 ABBOTT ROAD, BUFFALO, NY, 14220, USA",-78.812502,42.84833
"GOOD SAMARITAN HOSPITAL MEDICAL CENTER",330286,"1000 MONTAUK HIGHWAY","WEST ISLIP","NY",11795,"1000 MONTAUK HIGHWAY, WEST ISLIP, NY, 11795, USA",-73.294626,40.695796
"UNIVERSITY HOSPITAL ( STONY BROOK )",330393,"HEALTH SCIENCES CENTER SUNY","STONY BROOK","NY",11794,"HEALTH SCIENCES CENTER SUNY, STONY BROOK, NY, 11794, USA",-73.11174,40.904662
"UNITED HEALTH SERVICES HOSPITALS, INC",330394,"10-42 MITCHELL AVENUE","BINGHAMTON","NY",13903,"10-42 MITCHELL AVENUE, BINGHAMTON, NY, 13903, USA",-75.914142,42.086084
"ST BARNABAS HOSPITAL",330399,"4422 THIRD AVENUE","BRONX","NY",10457,"4422 THIRD AVENUE, BRONX, NY, 10457, USA",-73.89132,40.85366
"MEMORIAL MISSION HOSPITAL AND ASHEVILLE SURGERY CE",340002,"509 BILTMORE AVE","ASHEVILLE","NC",28801,"509 BILTMORE AVE, ASHEVILLE, NC, 28801, USA",-82.548488,35.578032
"NOVANT HEALTH FORSYTH MEDICAL CENTER",340014,"3333 SILAS CREEK PARKWAY","WINSTON-SALEM","NC",27103,"3333 SILAS CREEK PARKWAY, WINSTON-SALEM, NC, 27103, USA",-80.251835,36.065846
"CAPE FEAR VALLEY MEDICAL CENTER",340028,"1638 OWEN DRIVE P O BOX 2000","FAYETTEVILLE","NC",28302,"1638 OWEN DRIVE P O BOX 2000, FAYETTEVILLE, NC, 28302, USA",-78.908828,35.034307
"VIDANT MEDICAL CENTER",340040,"2100 STANTONSBURG RD","GREENVILLE","NC",27834,"2100 STANTONSBURG RD, GREENVILLE, NC, 27834, USA",-77.407814,35.605074
"NORTH CAROLINA BAPTIST HOSPITAL",340047,"MEDICAL CENTER BOULEVARD","WINSTON-SALEM","NC",27157,"MEDICAL CENTER BOULEVARD, WINSTON-SALEM, NC, 27157, USA",-80.271501,36.090261
"WAKEMED, RALEIGH CAMPUS",340069,"3000 NEW BERN AVE","RALEIGH","NC",27610,"3000 NEW BERN AVE, RALEIGH, NC, 27610, USA",-78.588704,35.786462
"THE MOSES H CONE MEMORIAL HOSPITAL",340091,"1200 N ELM ST","GREENSBORO","NC",27401,"1200 N ELM ST, GREENSBORO, NC, 27401, USA",-79.788905,36.089737
"REX HOSPITAL",340114,"4420 LAKE BOONE TRAIL","RALEIGH","NC",27607,"4420 LAKE BOONE TRAIL, RALEIGH, NC, 27607, USA",-78.703837,35.815541
"NEW HANOVER REGIONAL MEDICAL CENTER",340141,"2131 S 17TH ST BOX 9000","WILMINGTON","NC",28402,"2131 S 17TH ST BOX 9000, WILMINGTON, NC, 28402, USA",-77.901408,34.340518
"SANFORD MEDICAL CENTER FARGO",350011,"801 BROADWAY NORTH","FARGO","ND",58122,"801 BROADWAY NORTH, FARGO, ND, 58122, USA",-96.788608,46.88462
"ESSENTIA HEALTH-FARGO",350070,"3000 32ND AVE SOUTH","FARGO","ND",58104,"3000 32ND AVE SOUTH, FARGO, ND, 58104, USA",-96.842348,46.832521
"UNIVERSITY OF CINCINNATI MEDICAL CENTER, LLC",360003,"234 GOODMAN STREET","CINCINNATI","OH",45219,"234 GOODMAN STREET, CINCINNATI, OH, 45219, USA",-84.502352,39.136713
"RIVERSIDE METHODIST HOSPITAL",360006,"3535 OLENTANGY RIVER RD","COLUMBUS","OH",43214,"3535 OLENTANGY RIVER RD, COLUMBUS, OH, 43214, USA",-83.030988,40.031468
"GRANT MEDICAL CENTER",360017,"111 SOUTH GRANT AVENUE","COLUMBUS","OH",43215,"111 SOUTH GRANT AVENUE, COLUMBUS, OH, 43215, USA",-82.990688,39.96088
"SUMMA HEALTH SYSTEM",360020,"525 EAST MARKET STREET","AKRON","OH",44309,"525 EAST MARKET STREET, AKRON, OH, 44309, USA",-81.501371,41.078942
"AKRON GENERAL MEDICAL CENTER",360027,"400 WABASH AVENUE","AKRON","OH",44307,"400 WABASH AVENUE, AKRON, OH, 44307, USA",-81.531441,41.077875
"MOUNT CARMEL WEST",360035,"793 WEST STATE STREET","COLUMBUS","OH",43222,"793 WEST STATE STREET, COLUMBUS, OH, 43222, USA",-83.021519,39.957587
"UNIVERSITY OF TOLEDO MEDICAL CENTER",360048,"3000 ARLINGTON AVENUE","TOLEDO","OH",43699,"3000 ARLINGTON AVENUE, TOLEDO, OH, 43699, USA",-83.615653,41.621355
"MIAMI VALLEY HOSPITAL",360051,"ONE WYOMING STREET","DAYTON","OH",45409,"ONE WYOMING STREET, DAYTON, OH, 45409, USA",-84.187482,39.74371
"METROHEALTH SYSTEM",360059,"2500 METROHEALTH DRIVE","CLEVELAND","OH",44109,"2500 METROHEALTH DRIVE, CLEVELAND, OH, 44109, USA",-81.698901,41.462493
"ST ELIZABETH YOUNGSTOWN HOSPITAL",360064,"1044 BELMONT AVENUE","YOUNGSTOWN","OH",44501,"1044 BELMONT AVENUE, YOUNGSTOWN, OH, 44501, USA",-80.655741,41.114214
"TOLEDO HOSPITAL THE",360068,"2142 NORTH COVE BOULEVARD","TOLEDO","OH",43606,"2142 NORTH COVE BOULEVARD, TOLEDO, OH, 43606, USA",-83.594472,41.671087
"MERCY MEDICAL CENTER",360070,"1320 MERCY DRIVE NW","CANTON","OH",44708,"1320 MERCY DRIVE NW, CANTON, OH, 44708, USA",-81.397108,40.81142
"KETTERING MEDICAL CENTER",360079,"3535 SOUTHERN BOULEVARD","KETTERING","OH",45429,"3535 SOUTHERN BOULEVARD, KETTERING, OH, 45429, USA",-84.190533,39.698553
"AULTMAN HOSPITAL",360084,"2600 SIXTH STREET SW","CANTON","OH",44710,"2600 SIXTH STREET SW, CANTON, OH, 44710, USA",-81.403555,40.796861
"MERCY ST VINCENT MEDICAL CENTER",360112,"2213 CHERRY STREET","TOLEDO","OH",43608,"2213 CHERRY STREET, TOLEDO, OH, 43608, USA",-83.541356,41.668208
"UH CLEVELAND MEDICAL CENTER",360137,"11100 EUCLID AVENUE","CLEVELAND","OH",44106,"11100 EUCLID AVENUE, CLEVELAND, OH, 44106, USA",-81.60834,41.506653
"HILLCREST MEDICAL CENTER",370001,"1120 SOUTH UTICA AVENUE","TULSA","OK",74104,"1120 SOUTH UTICA AVENUE, TULSA, OK, 74104, USA",-95.967212,36.147455
"ST ANTHONY HOSPITAL",370037,"1000 NORTH LEE AVENUE","OKLAHOMA CITY","OK",73101,"1000 NORTH LEE AVENUE, OKLAHOMA CITY, OK, 73101, USA",-97.524238,35.477225
"COMANCHE COUNTY MEMORIAL HOSPITAL",370056,"3401 WEST GORE BLVD","LAWTON","OK",73505,"3401 WEST GORE BLVD, LAWTON, OK, 73505, USA",-98.434399,34.608862
"SAINT FRANCIS HOSPITAL, INC",370091,"6161 SOUTH YALE","TULSA","OK",74136,"6161 SOUTH YALE, TULSA, OK, 74136, USA",-95.920166,36.052391
"O U MEDICAL CENTER",370093,"700 NE 13TH STREET","OKLAHOMA CITY","OK",73104,"700 NE 13TH STREET, OKLAHOMA CITY, OK, 73104, USA",-97.501052,35.482385
"ST JOHN MEDICAL CENTER, INC",370114,"1923 SOUTH UTICA AVENUE","TULSA","OK",74104,"1923 SOUTH UTICA AVENUE, TULSA, OK, 74104, USA",-95.967139,36.134845
"OKLAHOMA HEART HOSPITAL, LLC",370215,"4050 WEST MEMORIAL ROAD","OKLAHOMA CITY","OK",73120,"4050 WEST MEMORIAL ROAD, OKLAHOMA CITY, OK, 73120, USA",-97.593548,35.608945
"LEGACY EMANUEL MEDICAL CENTER",380007,"2801 N GANTENBEIN AVENUE","PORTLAND","OR",97227,"2801 N GANTENBEIN AVENUE, PORTLAND, OR, 97227, USA",-122.669442,45.542818
"ASANTE ROGUE REGIONAL MEDICAL CENTER",380018,"2825 E BARNETT ROAD","MEDFORD","OR",97504,"2825 E BARNETT ROAD, MEDFORD, OR, 97504, USA",-122.83008,42.316553
"SACRED HEART MEDICAL CENTER - RIVERBEND",380102,"3333 RIVERBEND DRIVE","SPRINGFIELD","OR",97477,"3333 RIVERBEND DRIVE, SPRINGFIELD, OR, 97477, USA",-123.378039,43.29602
"GEISINGER-COMMUNITY MEDICAL CENTER",390001,"1822 MULBERRY STREET","SCRANTON","PA",18510,"1822 MULBERRY STREET, SCRANTON, PA, 18510, USA",-75.645865,41.400725
"GEISINGER MEDICAL CENTER",390006,"100 NORTH ACADEMY AVENUE","DANVILLE","PA",17822,"100 NORTH ACADEMY AVENUE, DANVILLE, PA, 17822, USA",-76.604452,40.969671
"UPMC MERCY",390028,"1400 LOCUST STREET","PITTSBURGH","PA",15219,"1400 LOCUST STREET, PITTSBURGH, PA, 15219, USA",-79.985199,40.43683
"READING HOSPITAL",390044,"SIXTH AVENUE AND SPRUCE ST","READING","PA",19603,"SIXTH AVENUE AND SPRUCE ST, READING, PA, 19603, USA",-75.918284,40.330543
"YORK HOSPITAL",390046,"1001 SOUTH GEORGE STREET","YORK","PA",17403,"1001 SOUTH GEORGE STREET, YORK, PA, 17403, USA",-76.720468,39.946672
"ST LUKE'S HOSPITAL BETHLEHEM",390049,"801 OSTRUM STREET","BETHLEHEM","PA",18015,"801 OSTRUM STREET, BETHLEHEM, PA, 18015, USA",-75.392556,40.608551
"ALLEGHENY GENERAL HOSPITAL",390050,"320 EAST NORTH AVENUE","PITTSBURGH","PA",15212,"320 EAST NORTH AVENUE, PITTSBURGH, PA, 15212, USA",-80.003405,40.456145
"UPMC HAMOT",390063,"201 STATE STREET","ERIE","PA",16550,"201 STATE STREET, ERIE, PA, 16550, USA",-80.087825,42.133334
"PINNACLE HEALTH HOSPITALS",390067,"409 SOUTH SECOND STREET","HARRISBURG","PA",17105,"409 SOUTH SECOND STREET, HARRISBURG, PA, 17105, USA",-76.877507,40.257401
"UPMC ALTOONA",390073,"620 HOWARD AVENUE","ALTOONA","PA",16601,"620 HOWARD AVENUE, ALTOONA, PA, 16601, USA",-78.398009,40.521388
"ROBERT PACKER HOSPITAL",390079,"ONE GUTHRIE SQUARE","SAYRE","PA",18840,"ONE GUTHRIE SQUARE, SAYRE, PA, 18840, USA",-76.509755,41.992923
"ARIA HEALTH",390115,"10800 KNIGHTS ROAD","PHILADELPHIA","PA",19114,"10800 KNIGHTS ROAD, PHILADELPHIA, PA, 19114, USA",-74.981563,40.069522
"LEHIGH VALLEY HOSPITAL",390133,"1200 SOUTH CEDAR CREST BOULVARD","ALLENTOWN","PA",18105,"1200 SOUTH CEDAR CREST BOULVARD, ALLENTOWN, PA, 18105, USA",-75.518783,40.567774
"WILKES-BARRE GENERAL HOSPITAL",390137,"575 NORTH RIVER STREET","WILKES-BARRE","PA",18764,"575 NORTH RIVER STREET, WILKES-BARRE, PA, 18764, USA",-75.868032,41.258599
"ALBERT EINSTEIN MEDICAL CENTER",390142,"5501 OLD YORK ROAD","PHILADELPHIA","PA",19141,"5501 OLD YORK ROAD, PHILADELPHIA, PA, 19141, USA",-75.144976,40.034759
"UPMC PRESBYTERIAN SHADYSIDE",390164,"200 LOTHROP STREET","PITTSBURGH","PA",15213,"200 LOTHROP STREET, PITTSBURGH, PA, 15213, USA",-79.960729,40.441819
"THOMAS JEFFERSON UNIVERSITY HOSPITAL",390174,"111 SOUTH 11TH STREET","PHILADELPHIA","PA",19107,"111 SOUTH 11TH STREET, PHILADELPHIA, PA, 19107, USA",-75.158649,39.949647
"CROZER CHESTER MEDICAL CENTER",390180,"ONE MEDICAL CENTER BOULEVARD","UPLAND","PA",19013,"ONE MEDICAL CENTER BOULEVARD, UPLAND, PA, 19013, USA",-75.354603,39.850332
"MAIN LINE HOSPITAL LANKENAU",390195,"100 LANCASTER AVE","WYNNEWOOD","PA",19096,"100 LANCASTER AVE, WYNNEWOOD, PA, 19096, USA",-75.283785,40.00428
"PENN PRESBYTERIAN MEDICAL CENTER",390223,"51 NORTH 39TH STREET","PHILADELPHIA","PA",19104,"51 NORTH 39TH STREET, PHILADELPHIA, PA, 19104, USA",-75.199491,39.957201
"ABINGTON MEMORIAL HOSPITAL",390231,"1200 OLD YORK ROAD","ABINGTON","PA",19001,"1200 OLD YORK ROAD, ABINGTON, PA, 19001, USA",-75.120234,40.117351
"ST MARY MEDICAL CENTER",390258,"LANGHORNE-NEWTOWN RD","LANGHORNE","PA",19047,"LANGHORNE-NEWTOWN RD, LANGHORNE, PA, 19047, USA",-74.922204,40.187186
"GEISINGER WYOMING VALLEY MEDICAL CENTER",390270,"1000 EAST MOUNTAIN BOULEVARD","WILKES BARRE","PA",18711,"1000 EAST MOUNTAIN BOULEVARD, WILKES BARRE, PA, 18711, USA",-75.938783,41.233107
"HAHNEMANN UNIVERSITY HOSPITAL",390290,"230 NORTH BROAD STREET","PHILADELPHIA","PA",19102,"230 NORTH BROAD STREET, PHILADELPHIA, PA, 19102, USA",-75.162818,39.956704
"RHODE ISLAND HOSPITAL",410007,"593 EDDY STREET","PROVIDENCE","RI",2903,"593 EDDY STREET, PROVIDENCE, RI, 2903, USA",-89.244805,43.449377
"MUSC MEDICAL CENTER",420004,"169 ASHLEY AVE","CHARLESTON","SC",29425,"169 ASHLEY AVE, CHARLESTON, SC, 29425, USA",-79.946621,32.785542
"SPARTANBURG MEDICAL CENTER",420007,"101 E WOOD ST","SPARTANBURG","SC",29303,"101 E WOOD ST, SPARTANBURG, SC, 29303, USA",-81.935909,34.968122
"MCLEOD REGIONAL MEDICAL CENTER-PEE DEE",420051,"555 E CHEVES ST BOX 8700","FLORENCE","SC",29506,"555 E CHEVES ST BOX 8700, FLORENCE, SC, 29506, USA",-79.646192,34.213891
"GHS GREENVILLE MEMORIAL HOSPITAL",420078,"701 GROVE RD","GREENVILLE","SC",29605,"701 GROVE RD, GREENVILLE, SC, 29605, USA",-82.413671,34.821574
"TRIDENT MEDICAL CENTER",420079,"9330 MEDICAL PLAZA DR","CHARLESTON","SC",29406,"9330 MEDICAL PLAZA DR, CHARLESTON, SC, 29406, USA",-80.075067,32.97554
"GRAND STRAND REGIONAL MEDICAL CENTER",420085,"809 82ND PARKWAY","MYRTLE BEACH","SC",29572,"809 82ND PARKWAY, MYRTLE BEACH, SC, 29572, USA",-78.817099,33.755394
"CAROLINAS HOSPITAL SYSTEM",420091,"805 PAMPLICO HWY BOX 100550","FLORENCE","SC",29505,"805 PAMPLICO HWY BOX 100550, FLORENCE, SC, 29505, USA",-79.688893,34.130066
"SANFORD USD MEDICAL CENTER",430027,"1305 W 18TH ST  POST OFFICE BOX 5039","SIOUX FALLS","SD",57117,"1305 W 18TH ST  POST OFFICE BOX 5039, SIOUX FALLS, SD, 57117, USA",-96.754971,43.531243
"JACKSON-MADISON COUNTY GENERAL HOSPITAL",440002,"620 SKYLINE DRIVE","JACKSON","TN",38301,"620 SKYLINE DRIVE, JACKSON, TN, 38301, USA",-88.834424,35.639689
"TRISTAR SKYLINE MEDICAL CENTER",440006,"3441 DICKERSON PIKE","NASHVILLE","TN",37207,"3441 DICKERSON PIKE, NASHVILLE, TN, 37207, USA",-86.75746,36.240656
"UNIVERSITY OF TN MEDICAL CENTER (THE)",440015,"1924 ALCOA HIGHWAY","KNOXVILLE","TN",37920,"1924 ALCOA HIGHWAY, KNOXVILLE, TN, 37920, USA",-83.94861,35.935557
"WELLMONT HOLSTON VALLEY MEDICAL CENTER",440017,"130 WEST RAVINE ROAD","KINGSPORT","TN",37662,"130 WEST RAVINE ROAD, KINGSPORT, TN, 37662, USA",-82.553809,36.552807
"METHODIST HEALTHCARE MEMPHIS HOSPITALS",440049,"1265 UNION AVE SUITE 700","MEMPHIS","TN",38104,"1265 UNION AVE SUITE 700, MEMPHIS, TN, 38104, USA",-90.018534,35.137028
"COOKEVILLE REGIONAL MEDICAL CENTER",440059,"1 MEDICAL CENTER BOULEVARD","COOKEVILLE","TN",38501,"1 MEDICAL CENTER BOULEVARD, COOKEVILLE, TN, 38501, USA",-85.509583,36.170031
"JOHNSON CITY MEDICAL CENTER",440063,"400 N STATE OF FRANKLIN RD","JOHNSON CITY","TN",37604,"400 N STATE OF FRANKLIN RD, JOHNSON CITY, TN, 37604, USA",-82.386523,36.308534
"MEMORIAL HEALTHCARE SYSTEM, INC",440091,"2525 DESALES AVE","CHATTANOOGA","TN",37404,"2525 DESALES AVE, CHATTANOOGA, TN, 37404, USA",-85.26149,35.040241
"ERLANGER MEDICAL CENTER",440104,"975 E 3RD ST","CHATTANOOGA","TN",37403,"975 E 3RD ST, CHATTANOOGA, TN, 37403, USA",-85.290514,35.047755
"TENNOVA HEALTHCARE",440120,"900 EAST OAK HILL AVENUE","KNOXVILLE","TN",37917,"900 EAST OAK HILL AVENUE, KNOXVILLE, TN, 37917, USA",-83.928152,35.992212
"REGIONAL ONE HEALTH",440152,"877 JEFFERSON AVENUE","MEMPHIS","TN",38103,"877 JEFFERSON AVENUE, MEMPHIS, TN, 38103, USA",-90.031401,35.142558
"ST FRANCIS HOSPITAL",440183,"5959 PARK AVE","MEMPHIS","TN",38119,"5959 PARK AVE, MEMPHIS, TN, 38119, USA",-89.862622,35.099983
"SAINT FRANCIS BARTLETT MEDICAL CENTER",440228,"2986 KATE BOND RD","BARTLETT","TN",38133,"2986 KATE BOND RD, BARTLETT, TN, 38133, USA",-89.790801,35.221361
"ST JOSEPH REGIONAL HEALTH CENTER",450011,"2801 FRANCISCAN DR","BRYAN","TX",77802,"2801 FRANCISCAN DR, BRYAN, TX, 77802, USA",-96.34665,30.655566
"UNIVERSITY OF TEXAS MEDICAL BRANCH",450018,"301 UNIVERSITY BOULEVARD","GALVESTON","TX",77555,"301 UNIVERSITY BOULEVARD, GALVESTON, TX, 77555, USA",-94.775875,29.311422
"LAREDO MEDICAL CENTER",450029,"1700 EAST SAUNDERS","LAREDO","TX",78044,"1700 EAST SAUNDERS, LAREDO, TX, 78044, USA",-99.441615,27.528138
"CHRISTUS SOUTHEAST TEXAS- ST ELIZABETH",450034,"2830 CALDER AVENUE","BEAUMONT","TX",77702,"2830 CALDER AVENUE, BEAUMONT, TX, 77702, USA",-94.131094,30.085668
"JPS HEALTH NETWORK",450039,"1500 S MAIN ST","FORT WORTH","TX",76104,"1500 S MAIN ST, FORT WORTH, TX, 76104, USA",-97.326406,32.728194
"COVENANT MEDICAL CENTER",450040,"3615 19TH STREET","LUBBOCK","TX",79410,"3615 19TH STREET, LUBBOCK, TX, 79410, USA",-101.892503,33.577736
"SCOTT & WHITE MEDICAL CENTER - TEMPLE",450054,"2401 S  31ST ST","TEMPLE","TX",76508,"2401 S  31ST ST, TEMPLE, TX, 76508, USA",-97.36613,31.077931
"BAPTIST MEDICAL CENTER",450058,"111 DALLAS STREET","SAN ANTONIO","TX",78205,"111 DALLAS STREET, SAN ANTONIO, TX, 78205, USA",-98.492744,29.432907
"EAST TEXAS MEDICAL CENTER",450083,"1000 SOUTH BECKHAM STREET","TYLER","TX",75701,"1000 SOUTH BECKHAM STREET, TYLER, TX, 75701, USA",-95.291907,32.338727
"DELL SETON  MED CENTER AT THE UNIVERSITY OF TX",450124,"601 E 15TH STREET","AUSTIN","TX",78701,"601 E 15TH STREET, AUSTIN, TX, 78701, USA",-97.733841,30.275216
"TEXAS HEALTH HARRIS METHODIST FORT WORTH",450135,"1301 PENNSYLVANIA AVENUE","FORT WORTH","TX",76104,"1301 PENNSYLVANIA AVENUE, FORT WORTH, TX, 76104, USA",-97.339312,32.738489
"BAYLOR SCOTT AND WHITE ALL SAINTS MEDICAL CENTER",450137,"1400 EIGHTH AVE","FORT WORTH","TX",76104,"1400 EIGHTH AVE, FORT WORTH, TX, 76104, USA",-97.343699,32.729383
"MEMORIAL HERMANN HOSPITAL SYSTEM",450184,"1635  NORTH LOOP WEST","HOUSTON","TX",77008,"1635  NORTH LOOP WEST, HOUSTON, TX, 77008, USA",-95.429746,29.812309
"NORTHWEST TEXAS HOSPITAL",450209,"1501 COULTER ROAD","AMARILLO","TX",79106,"1501 COULTER ROAD, AMARILLO, TX, 79106, USA",-101.920338,35.18622
"UNIVERSITY HEALTH SYSTEM",450213,"4502 MEDICAL DR","SAN ANTONIO","TX",78229,"4502 MEDICAL DR, SAN ANTONIO, TX, 78229, USA",-98.573945,29.509082
"ST DAVID'S MEDICAL CENTER",450431,"919 E 32ND ST","AUSTIN","TX",78705,"919 E 32ND ST, AUSTIN, TX, 78705, USA",-97.724903,30.29007
"CLEAR LAKE REGIONAL MEDICAL CENTER",450617,"500 MEDICAL CENTER BLVD","WEBSTER","TX",77598,"500 MEDICAL CENTER BLVD, WEBSTER, TX, 77598, USA",-95.129514,29.53885
"MEDICAL CENTER OF PLANO",450651,"3901 W 15TH ST","PLANO","TX",75075,"3901 W 15TH ST, PLANO, TX, 75075, USA",-96.765944,33.019426
"UNIVERSITY MEDICAL CENTER",450686,"602 INDIANA AVENUE","LUBBOCK","TX",79415,"602 INDIANA AVENUE, LUBBOCK, TX, 79415, USA",-101.887698,33.590678
"UT SOUTHWESTERN UNIVERSITY HOSPITAL-ZALE LIPSHY",450766,"5151 HARRY HINES BLVD","DALLAS","TX",75390,"5151 HARRY HINES BLVD, DALLAS, TX, 75390, USA",-96.84065,32.814164
"KINGWOOD MEDICAL CENTER",450775,"22999 US HWY 59","KINGWOOD","TX",77325,"22999 US HWY 59, KINGWOOD, TX, 77325, USA",-95.233435,30.112816
"MCKAY DEE HOSPITAL",460004,"4401 HARRISON BOULEVARD","OGDEN","UT",84403,"4401 HARRISON BOULEVARD, OGDEN, UT, 84403, USA",-111.949167,41.183293
"INTERMOUNTAIN MEDICAL CENTER",460010,"5121 SOUTH COTTONWOOD STREET","MURRAY","UT",84107,"5121 SOUTH COTTONWOOD STREET, MURRAY, UT, 84107, USA",-111.899622,40.632722
"WINCHESTER MEDICAL CENTER",490005,"1840 AMHERST ST","WINCHESTER","VA",22601,"1840 AMHERST ST, WINCHESTER, VA, 22601, USA",-78.19384,39.191249
"CENTRA  HEALTH, INC",490021,"1901 TATE SPRINGS ROAD","LYNCHBURG","VA",24501,"1901 TATE SPRINGS ROAD, LYNCHBURG, VA, 24501, USA",-79.171139,37.419951
"MARY WASHINGTON HOSPITAL, INC",490022,"1001 SAM PERRY BOULEVARD","FREDERICKSBURG","VA",22401,"1001 SAM PERRY BOULEVARD, FREDERICKSBURG, VA, 22401, USA",-77.482131,38.309936
"CARILION ROANOKE MEMORIAL HOSPITAL",490024,"1906 BELLEVIEW AVENUE, SE","ROANOKE","VA",24014,"1906 BELLEVIEW AVENUE, SE, ROANOKE, VA, 24014, USA",-79.898263,37.260165
"RIVERSIDE REGIONAL MEDICAL CENTER",490052,"500 J CLYDE MORRIS BLVD","NEWPORT NEWS","VA",23601,"500 J CLYDE MORRIS BLVD, NEWPORT NEWS, VA, 23601, USA",-76.485627,37.06398
"CJW MEDICAL CENTER",490112,"7101 JAHNKE ROAD","RICHMOND","VA",23235,"7101 JAHNKE ROAD, RICHMOND, VA, 23235, USA",-77.537191,37.518193
"HENRICO DOCTORS' HOSPITAL",490118,"1602 SKIPWITH ROAD","RICHMOND","VA",23229,"1602 SKIPWITH ROAD, RICHMOND, VA, 23229, USA",-77.537787,37.601971
"SWEDISH MEDICAL CENTER / CHERRY HILL",500025,"500 17TH AVENUE","SEATTLE","WA",98122,"500 17TH AVENUE, SEATTLE, WA, 98122, USA",-122.310251,47.606173
"HARBORVIEW MEDICAL CENTER",500064,"325 9TH AVENUE","SEATTLE","WA",98104,"325 9TH AVENUE, SEATTLE, WA, 98104, USA",-122.323377,47.604051
"WEST VIRGINIA UNIVERSITY HOSPITALS",510001,"MEDICAL CENTER DRIVE","MORGANTOWN","WV",26506,"MEDICAL CENTER DRIVE, MORGANTOWN, WV, 26506, USA",-79.965639,39.650396
"CHARLESTON AREA MEDICAL CENTER",510022,"501 MORRIS STREET","CHARLESTON","WV",25301,"501 MORRIS STREET, CHARLESTON, WV, 25301, USA",-81.625732,38.347457
"CABELL HUNTINGTON HOSPITAL INC",510055,"1340 HAL GREER BOULEVARD","HUNTINGTON","WV",25701,"1340 HAL GREER BOULEVARD, HUNTINGTON, WV, 25701, USA",-82.428226,38.409095
"UNIVERSITY OF WI  HOSPITALS & CLINICS AUTHORITY",520098,"600 HIGHLAND AVENUE","MADISON","WI",53792,"600 HIGHLAND AVENUE, MADISON, WI, 53792, USA",-89.429199,43.077708
"WHEATON FRANCISCAN - ST JOSEPH",520136,"5000 W CHAMBERS ST","MILWAUKEE","WI",53210,"5000 W CHAMBERS ST, MILWAUKEE, WI, 53210, USA",-87.976093,43.073459
"FROEDTERT MEMORIAL LUTHERAN HOSPITAL",520177,"9200 W WISCONSIN AVE","MILWAUKEE","WI",53226,"9200 W WISCONSIN AVE, MILWAUKEE, WI, 53226, USA",-88.027779,43.038291
"THE HEART HOSPITAL BAYLOR PLANO",670025,"1100 ALLIED DRIVE","PLANO","TX",75093,"1100 ALLIED DRIVE, PLANO, TX, 75093, USA",-96.704629,32.940548
"ST VINCENT'S EAST",10011,"50 MEDICAL PARK EAST DRIVE","BIRMINGHAM","AL",35235,"50 MEDICAL PARK EAST DRIVE, BIRMINGHAM, AL, 35235, USA",-86.680964,33.586756
"D C H REGIONAL MEDICAL CENTER",10092,"809 UNIVERSITY BOULEVARD EAST","TUSCALOOSA","AL",35401,"809 UNIVERSITY BOULEVARD EAST, TUSCALOOSA, AL, 35401, USA",-87.527141,33.206282
"SPRINGHILL MEMORIAL HOSPITAL",10144,"3719 DAUPHIN STREET","MOBILE","AL",36608,"3719 DAUPHIN STREET, MOBILE, AL, 36608, USA",-88.140023,30.685488
"YUMA REGIONAL MEDICAL CENTER",30013,"2400 SOUTH AVENUE A","YUMA","AZ",85364,"2400 SOUTH AVENUE A, YUMA, AZ, 85364, USA",-114.633258,32.683951
"ST ROSE HOSPITAL",50002,"27200 CALAROGA AVE","HAYWARD","CA",94545,"27200 CALAROGA AVE, HAYWARD, CA, 94545, USA",-122.089711,37.632897
"HOLLYWOOD PRESBYTERIAN MEDICAL CENTER",50063,"1300 N VERMONT AVE","LOS ANGELES","CA",90027,"1300 N VERMONT AVE, LOS ANGELES, CA, 90027, USA",-118.29175,34.095548
"ST MARY MEDICAL CENTER",50191,"1050 LINDEN AVE","LONG BEACH","CA",90813,"1050 LINDEN AVE, LONG BEACH, CA, 90813, USA",-118.186621,33.77996
"POMONA VALLEY HOSPITAL MEDICAL CENTER",50231,"1798 N GAREY AVE","POMONA","CA",91767,"1798 N GAREY AVE, POMONA, CA, 91767, USA",-117.752426,34.078514
"PROVIDENCE SAINT JOSEPH MEDICAL CTR",50235,"501 SOUTH BUENA VISTA","BURBANK","CA",91505,"501 SOUTH BUENA VISTA, BURBANK, CA, 91505, USA",-118.346937,34.173885
"METHODIST HOSPITAL OF SOUTHERN CA",50238,"300 W HUNTINGTON DR","ARCADIA","CA",91006,"300 W HUNTINGTON DR, ARCADIA, CA, 91006, USA",-118.039376,34.135563
"GLENDALE ADVENTIST MEDICAL CENTER",50239,"1509 E WILSON TERRACE","GLENDALE","CA",91206,"1509 E WILSON TERRACE, GLENDALE, CA, 91206, USA",-118.231416,34.149698
"TORRANCE MEMORIAL MEDICAL CENTER",50351,"3330 LOMITA BLVD","TORRANCE","CA",90509,"3330 LOMITA BLVD, TORRANCE, CA, 90509, USA",-118.343585,33.812621
"NORTHBAY MEDICAL CENTER",50367,"1200 B  GALE WILSON BLVD","FAIRFIELD","CA",94533,"1200 B  GALE WILSON BLVD, FAIRFIELD, CA, 94533, USA",-122.049897,38.261081
"WEST ANAHEIM MEDICAL CENTER",50426,"3033 W ORANGE AVENUE","ANAHEIM","CA",92804,"3033 W ORANGE AVENUE, ANAHEIM, CA, 92804, USA",-117.994884,33.824809
"DOCTORS MEDICAL CENTER",50464,"1441 FLORIDA AVENUE","MODESTO","CA",95350,"1441 FLORIDA AVENUE, MODESTO, CA, 95350, USA",-120.996216,37.665517
"GOOD SAMARITAN HOSPITAL",50471,"1225 WILSHIRE BOULEVARD","LOS ANGELES","CA",90017,"1225 WILSHIRE BOULEVARD, LOS ANGELES, CA, 90017, USA",-118.26518,34.053257
"WEST HILLS HOSPITAL & MEDICAL CENTER",50481,"7300 MEDICAL CENTER DR","WEST HILLS","CA",91307,"7300 MEDICAL CENTER DR, WEST HILLS, CA, 91307, USA",-118.629727,34.203716
"LONG BEACH MEMORIAL MEDICAL CENTER",50485,"2801 ATLANTIC AVE","LONG BEACH","CA",90806,"2801 ATLANTIC AVE, LONG BEACH, CA, 90806, USA",-118.185011,33.808008
"SAINT VINCENT MEDICAL CENTER",50502,"2131 W 3RD ST","LOS ANGELES","CA",90057,"2131 W 3RD ST, LOS ANGELES, CA, 90057, USA",-118.272918,34.063015
"OLYMPIA MEDICAL CENTER",50742,"5900 WEST OLYMPIC BOULEVARD","LOS ANGELES","CA",90036,"5900 WEST OLYMPIC BOULEVARD, LOS ANGELES, CA, 90036, USA",-118.359856,34.057519
"PROVIDENCE TARZANA MEDICAL CENTER",50761,"18321 CLARK STREET","TARZANA","CA",91356,"18321 CLARK STREET, TARZANA, CA, 91356, USA",-118.532884,34.169848
"COAST PLAZA HOSPITAL",50771,"13100 STUDERBAKER ROAD","NORWALK","CA",90650,"13100 STUDERBAKER ROAD, NORWALK, CA, 90650, USA",-118.096178,33.919737
"GREENWICH HOSPITAL ASSOCIATION -",70018,"5 PERRYRIDGE RD","GREENWICH","CT",6830,"5 PERRYRIDGE RD, GREENWICH, CT, 6830, USA",-76.185919,42.632627
"HOWARD UNIVERSITY HOSPITAL",90003,"2041 GEORGIA AVE NW","WASHINGTON","DC",20060,"2041 GEORGIA AVE NW, WASHINGTON, DC, 20060, USA",-77.021821,38.917805
"PROVIDENCE HOSPITAL",90006,"1150 VARNUM ST NE","WASHINGTON","DC",20017,"1150 VARNUM ST NE, WASHINGTON, DC, 20017, USA",-76.992628,38.942865
"UNITED MEDICAL CENTER",90008,"1310 SOUTHERN AVENUE  SE","WASHINGTON","DC",20032,"1310 SOUTHERN AVENUE  SE, WASHINGTON, DC, 20032, USA",-76.982404,38.835954
"BAPTIST HOSPITAL OF MIAMI",100008,"8900 N KENDALL DR","MIAMI","FL",33176,"8900 N KENDALL DR, MIAMI, FL, 33176, USA",-80.340591,25.687794
"BAY MEDICAL CENTER SACRED HEART HEALTH SYSTEM",100026,"615 N BONITA AVE","PANAMA CITY","FL",32401,"615 N BONITA AVE, PANAMA CITY, FL, 32401, USA",-85.647149,30.159079
"ST VINCENT'S MEDICAL CENTER RIVERSIDE",100040,"1 SHIRCLIFF WAY","JACKSONVILLE","FL",32204,"1 SHIRCLIFF WAY, JACKSONVILLE, FL, 32204, USA",-81.779544,30.273918
"OSCEOLA REGIONAL MEDICAL CENTER",100110,"700 WEST OAK STREET","KISSIMMEE","FL",34741,"700 WEST OAK STREET, KISSIMMEE, FL, 34741, USA",-81.410846,28.300825
"NORTH FLORIDA REGIONAL MEDICAL CENTER",100204,"6500 NEWBERRY RD","GAINESVILLE","FL",32605,"6500 NEWBERRY RD, GAINESVILLE, FL, 32605, USA",-82.410587,29.659715
"GULF COAST MEDICAL CENTER LEE MEM HEALTH SYSTEM",100220,"13681 DOCTORS WAY","FORT MYERS","FL",33912,"13681 DOCTORS WAY, FORT MYERS, FL, 33912, USA",-81.851559,26.543181
"SOUTHEAST GEORGIA HEALTH SYSTEM- BRUNSWICK CAMPUS",110025,"2415 PARKWOOD DRIVE","BRUNSWICK","GA",31520,"2415 PARKWOOD DRIVE, BRUNSWICK, GA, 31520, USA",-81.485339,31.173968
"ST JOSEPH'S HOSPITAL - SAVANNAH",110043,"11705 MERCY BOULEVARD","SAVANNAH","GA",31419,"11705 MERCY BOULEVARD, SAVANNAH, GA, 31419, USA",-81.153256,31.986548
"COLISEUM MEDICAL CENTERS",110164,"350 HOSPITAL DRIVE","MACON","GA",31217,"350 HOSPITAL DRIVE, MACON, GA, 31217, USA",-83.61793,32.845818
"METHODIST HOSPITALS INC",150002,"600 GRANT ST","GARY","IN",46402,"600 GRANT ST, GARY, IN, 46402, USA",-87.356415,41.592126
"FRANCISCAN HEALTH HAMMOND",150004,"5454 HOHMAN AVE","HAMMOND","IN",46320,"5454 HOHMAN AVE, HAMMOND, IN, 46320, USA",-87.522092,41.614515
"TERREBONNE GENERAL MEDICAL CENTER",190008,"8166 MAIN STREET","HOUMA","LA",70360,"8166 MAIN STREET, HOUMA, LA, 70360, USA",-90.71441,29.59846
"ST FRANCIS MEDICAL CENTER",190125,"309 JACKSON STREET","MONROE","LA",71201,"309 JACKSON STREET, MONROE, LA, 71201, USA",-92.114935,32.500135
"SUBURBAN HOSPITAL",210022,"8600 OLD GEORGETOWN ROAD","BETHESDA","MD",20814,"8600 OLD GEORGETOWN ROAD, BETHESDA, MD, 20814, USA",-77.109031,38.996561
"JOHNS HOPKINS BAYVIEW MEDICAL CENTER",210029,"4940 EASTERN AVENUE","BALTIMORE","MD",21224,"4940 EASTERN AVENUE, BALTIMORE, MD, 21224, USA",-76.554697,39.287196
"UNIVERSITY OF MD MEDICAL CENTER MIDTOWN CAMPUS",210038,"827 LINDEN AVENUE","BALTIMORE","MD",21201,"827 LINDEN AVENUE, BALTIMORE, MD, 21201, USA",-76.620764,39.300421
"NORTHWEST HOSPITAL CENTER",210040,"5401 OLD COURT ROAD","RANDALLSTOWN","MD",21133,"5401 OLD COURT ROAD, RANDALLSTOWN, MD, 21133, USA",-76.816675,39.377872
"UNIVERSITY OF MD BALTO WASHINGTON  MEDICAL CENTER",210043,"301 HOSPITAL DRIVE","GLEN BURNIE","MD",21061,"301 HOSPITAL DRIVE, GLEN BURNIE, MD, 21061, USA",-76.626746,39.140428
"MEDSTAR SOUTHERN MARYLAND HOSPITAL CENTER",210062,"7503 SURRATTS ROAD","CLINTON","MD",20735,"7503 SURRATTS ROAD, CLINTON, MD, 20735, USA",-76.878791,38.750187
"HENRY FORD ALLEGIANCE HEALTH",230092,"205 N EAST AVE","JACKSON","MI",49201,"205 N EAST AVE, JACKSON, MI, 49201, USA",-84.393896,42.25144
"GENESYS REGIONAL MEDICAL CENTER - HEALTH PARK",230197,"ONE GENESYS PARKWAY","GRAND BLANC","MI",48439,"ONE GENESYS PARKWAY, GRAND BLANC, MI, 48439, USA",-83.640596,42.889859
"MAYO CLINIC HEALTH SYSTEM - MANKATO",240093,"1025 MARSH STREET","MANKATO","MN",56001,"1025 MARSH STREET, MANKATO, MN, 56001, USA",-93.984819,44.164509
"MISSISSIPPI BAPTIST MEDICAL CENTER",250102,"1225 N STATE ST","JACKSON","MS",39202,"1225 N STATE ST, JACKSON, MS, 39202, USA",-90.17822,32.313986
"ANDERSON REGIONAL MEDICAL CTR",250104,"2124 14 ST","MERIDIAN","MS",39301,"2124 14 ST, MERIDIAN, MS, 39301, USA",-88.686466,32.370857
"MERCY HOSPITAL JOPLIN",260001,"100 MERCY WAY","JOPLIN","MO",64804,"100 MERCY WAY, JOPLIN, MO, 64804, USA",-94.50942,37.022425
"MERCY HOSPITAL JEFFERSON",260023,"1400 HIGHWAY 61 SOUTH","CRYSTAL CITY","MO",63019,"1400 HIGHWAY 61 SOUTH, CRYSTAL CITY, MO, 63019, USA",-90.39208,38.23458
"VALLEY HOSPITAL MEDICAL CENTER",290021,"620 SHADOW LANE","LAS VEGAS","NV",89106,"620 SHADOW LANE, LAS VEGAS, NV, 89106, USA",-115.165521,36.163893
"MOUNTAINVIEW HOSPITAL",290039,"3100 N TENAYA WAY","LAS VEGAS","NV",89128,"3100 N TENAYA WAY, LAS VEGAS, NV, 89128, USA",-115.250889,36.216057
"SUMMERLIN HOSPITAL MEDICAL CENTER",290041,"657 TOWN CENTER DRIVE","LAS VEGAS","NV",89144,"657 TOWN CENTER DRIVE, LAS VEGAS, NV, 89144, USA",-115.32432,36.165858
"SPRING VALLEY HOSPITAL MEDICAL CENTER",290046,"5400 SOUTH RAINBOW BLVD","LAS VEGAS","NV",89118,"5400 SOUTH RAINBOW BLVD, LAS VEGAS, NV, 89118, USA",-115.242806,36.090745
"SOUTHERN HILLS HOSPITAL AND MEDICAL CENTER",290047,"9300 WEST SUNSET RD","LAS VEGAS","NV",89148,"9300 WEST SUNSET RD, LAS VEGAS, NV, 89148, USA",-115.295501,36.070243
"CENTENNIAL HILLS HOSPITAL MEDICAL CENTER",290054,"6900 N DURANGO DR","LAS VEGAS","NV",89149,"6900 N DURANGO DR, LAS VEGAS, NV, 89149, USA",-115.287849,36.288173
"HUNTERDON MEDICAL CENTER",310005,"2100 WESCOTT DRIVE","FLEMINGTON","NJ",8822,"2100 WESCOTT DRIVE, FLEMINGTON, NJ, 8822, USA",-74.858585,40.531128
"ST MARY'S GENERAL HOSPITAL",310006,"350 BOULEVARD","PASSAIC","NJ",7055,"350 BOULEVARD, PASSAIC, NJ, 7055, USA",-74.137104,40.858323
"HOLY NAME MEDICAL CENTER",310008,"718 TEANECK RD","TEANECK","NJ",7666,"718 TEANECK RD, TEANECK, NJ, 7666, USA",-74.01597,40.8976
"CAREPOINT HEALTH-CHRIST HOSPITAL",310016,"176 PALISADE AVE","JERSEY CITY","NJ",7306,"176 PALISADE AVE, JERSEY CITY, NJ, 7306, USA",-74.050738,40.734017
"CHILTON MEDICAL CENTER",310017,"97 WEST PARKWAY","POMPTON PLAINS","NJ",7444,"97 WEST PARKWAY, POMPTON PLAINS, NJ, 7444, USA",-74.308456,40.960336
"ROBERT WOOD JOHNSON UNIVERSITY HOSPITAL AT RAHWAY",310024,"865 STONE ST","RAHWAY","NJ",7065,"865 STONE ST, RAHWAY, NJ, 7065, USA",-74.291536,40.612212
"TRINITAS REGIONAL MEDICAL CENTER",310027,"225 WILLIAMSON STREET","ELIZABETH","NJ",7207,"225 WILLIAMSON STREET, ELIZABETH, NJ, 7207, USA",-74.214452,40.659527
"INSPIRA MEDICAL CENTER VINELAND",310032,"1505 W SHERMAN AVE","VINELAND","NJ",8360,"1505 W SHERMAN AVE, VINELAND, NJ, 8360, USA",-75.056759,39.447355
"RARITAN BAY MEDICAL CENTER PERTH AMBOY DIVISION",310039,"530 NEW BRUNSWICK AVE","PERTH AMBOY","NJ",8861,"530 NEW BRUNSWICK AVE, PERTH AMBOY, NJ, 8861, USA",-74.28218,40.519161
"COMMUNITY MEDICAL CENTER",310041,"99 RT 37 WEST","TOMS RIVER","NJ",8755,"99 RT 37 WEST, TOMS RIVER, NJ, 8755, USA",-74.217179,39.965474
"SAINT CLARE'S HOSPITAL/ DENVILLE CAMPUS",310050,"25 POCONO ROAD","DENVILLE","NJ",7834,"25 POCONO ROAD, DENVILLE, NJ, 7834, USA",-74.462852,40.894275
"HACKENSACK-UMC MOUNTAINSIDE",310054,"BAY AND HIGHLAND AVE","MONTCLAIR","NJ",7042,"BAY AND HIGHLAND AVE, MONTCLAIR, NJ, 7042, USA",-74.211655,40.84507
"VIRTUA MEMORIAL HOSPITAL OF BURLINGTON COUNTY",310057,"175 MADISON AVE","MOUNT HOLLY","NJ",8060,"175 MADISON AVE, MOUNT HOLLY, NJ, 8060, USA",-74.433157,40.768295
"MONMOUTH MEDICAL CENTER-SOUTHERN CAMPUS",310084,"600 RIVER AVE","LAKEWOOD","NJ",8701,"600 RIVER AVE, LAKEWOOD, NJ, 8701, USA",-74.21735,40.074178
"KENNEDY UNIVERSITY HOSPITAL - STRATFORD DIV",310086,"18 EAST LAUREL ROAD","STRATFORD","NJ",8084,"18 EAST LAUREL ROAD, STRATFORD, NJ, 8084, USA",-75.011374,39.824936
"ROBERT WOOD JOHNSON UNIVERSITY HOSPITAL HAMILTON",310110,"ONE HAMILTON HEALTH PLACE","HAMILTON","NJ",8690,"ONE HAMILTON HEALTH PLACE, HAMILTON, NJ, 8690, USA",-74.675147,40.216777
"PRESBYTERIAN HOSPITAL",320021,"1100 CENTRAL AVENUE SE","ALBUQUERQUE","NM",87106,"1100 CENTRAL AVENUE SE, ALBUQUERQUE, NM, 87106, USA",-106.636238,35.082704
"MOUNTAIN VIEW REGIONAL MEDICAL CENTER",320085,"4311 EAST LOHMAN AVENUE","LAS CRUCES","NM",88011,"4311 EAST LOHMAN AVENUE, LAS CRUCES, NM, 88011, USA",-106.728257,32.322727
"BRONX-LEBANON HOSPITAL CENTER",330009,"1276 FULTON AVENUE","BRONX","NY",10456,"1276 FULTON AVENUE, BRONX, NY, 10456, USA",-73.90385,40.831747
"NEW YORK COMMUNITY HOSPITAL OF BROOKLYN, INC.",330019,"2525 KINGS HIGHWAY","BROOKLYN","NY",11229,"2525 KINGS HIGHWAY, BROOKLYN, NY, 11229, USA",-73.949022,40.613238
"VASSAR BROTHERS MEDICAL CENTER",330023,"45 READE PLACE","POUGHKEEPSIE","NY",12601,"45 READE PLACE, POUGHKEEPSIE, NY, 12601, USA",-73.934933,41.694463
"NASSAU UNIVERSITY MEDICAL CENTER",330027,"2201 HEMPSTEAD TURNPIKE","EAST MEADOW","NY",11554,"2201 HEMPSTEAD TURNPIKE, EAST MEADOW, NY, 11554, USA",-73.554412,40.725297
"BROOKLYN HOSPITAL CENTER AT DOWNTOWN CAMPUS",330056,"121 DEKALB AVENUE","BROOKLYN","NY",11201,"121 DEKALB AVENUE, BROOKLYN, NY, 11201, USA",-73.977938,40.689806
"LINCOLN MEDICAL & MENTAL HEALTH CENTER",330080,"234 EAST 149TH STREET","BRONX","NY",10451,"234 EAST 149TH STREET, BRONX, NY, 10451, USA",-73.92395,40.817672
"NYACK HOSPITAL",330104,"160 NORTH MIDLAND AVENUE","NYACK","NY",10960,"160 NORTH MIDLAND AVENUE, NYACK, NY, 10960, USA",-73.925227,41.095369
"ELMHURST HOSPITAL CENTER",330128,"79-01 BROADWAY","ELMHURST","NY",11373,"79-01 BROADWAY, ELMHURST, NY, 11373, USA",-73.888279,40.745422
"BROOKHAVEN MEMORIAL HOSPITAL MEDICAL CENTER",330141,"101 HOSPITAL ROAD","PATCHOGUE","NY",11772,"101 HOSPITAL ROAD, PATCHOGUE, NY, 11772, USA",-72.977921,40.776548
"GOOD SAMARITAN HOSPITAL OF SUFFERN",330158,"255 LAFAYETTE AVENUE","SUFFERN","NY",10901,"255 LAFAYETTE AVENUE, SUFFERN, NY, 10901, USA",-74.136791,41.112338
"HIGHLAND HOSPITAL",330164,"1000 SOUTH AVENUE","ROCHESTER","NY",14620,"1000 SOUTH AVENUE, ROCHESTER, NY, 14620, USA",-77.607514,43.13574
"FLUSHING HOSPITAL MEDICAL CENTER",330193,"45TH AVENUE AND PARSONS BOULEVARD","FLUSHING","NY",11355,"45TH AVENUE AND PARSONS BOULEVARD, FLUSHING, NY, 11355, USA",-73.821767,40.76098
"KINGSBROOK JEWISH MEDICAL CENTER",330201,"585 SCHENECTADY AVENUE","BROOKLYN","NY",11203,"585 SCHENECTADY AVENUE, BROOKLYN, NY, 11203, USA",-73.93412,40.659957
"KINGS COUNTY HOSPITAL CENTER",330202,"451 CLARKSON AVENUE","BROOKLYN","NY",11203,"451 CLARKSON AVENUE, BROOKLYN, NY, 11203, USA",-73.944873,40.655735
"ST JOHN'S EPISCOPAL HOSPITAL AT SOUTH SHORE",330395,"327 BEACH 19TH STREET","FAR ROCKAWAY","NY",11691,"327 BEACH 19TH STREET, FAR ROCKAWAY, NY, 11691, USA",-73.823574,40.599813
"ST CATHERINE OF SIENA HOSPITAL",330401,"50 ROUTE 25A","SMITHTOWN","NY",11787,"50 ROUTE 25A, SMITHTOWN, NY, 11787, USA",-73.186785,40.85743
"CAROLINAS HEALTHCARE SYSTEM NORTHEAST",340001,"920 CHURCH ST N","CONCORD","NC",28025,"920 CHURCH ST N, CONCORD, NC, 28025, USA",-80.603261,35.434313
"UNC LENOIR HEALTH CARE",340027,"100 AIRPORT RD","KINSTON","NC",28501,"100 AIRPORT RD, KINSTON, NC, 28501, USA",-77.580401,35.290147
"CAROLINAS HEALTHCARE SYSTEM UNION",340130,"600 HOSPITAL DR","MONROE","NC",28112,"600 HOSPITAL DR, MONROE, NC, 28112, USA",-80.522376,34.973796
"GOOD SAMARITAN HOSPITAL",360052,"2222 PHILADELPHIA DRIVE","DAYTON","OH",45406,"2222 PHILADELPHIA DRIVE, DAYTON, OH, 45406, USA",-84.234872,39.787774
"MERCY HOSPITAL OKLAHOMA CITY, INC",370013,"4300 WEST MEMORIAL ROAD","OKLAHOMA CITY","OK",73120,"4300 WEST MEMORIAL ROAD, OKLAHOMA CITY, OK, 73120, USA",-97.600915,35.609023
"CONEMAUGH MEMORIAL MEDICAL CENTER",390110,"1086 FRANKLIN STREET","JOHNSTOWN","PA",15905,"1086 FRANKLIN STREET, JOHNSTOWN, PA, 15905, USA",-78.918646,40.305056
"MERCY FITZGERALD HOSPITAL",390156,"LANSDOWNE & BAILY RDS","DARBY","PA",19023,"LANSDOWNE & BAILY RDS, DARBY, PA, 19023, USA",-75.27185,39.93817
"PIEDMONT MEDICAL CENTER",420002,"222 S HERLONG AVE","ROCK HILL","SC",29730,"222 S HERLONG AVE, ROCK HILL, SC, 29730, USA",-81.050155,34.955099
"ROPER HOSPITAL",420087,"316 CALHOUN ST","CHARLESTON","SC",29401,"316 CALHOUN ST, CHARLESTON, SC, 29401, USA",-79.950237,32.78195
"TRISTAR CENTENNIAL MEDICAL CENTER",440161,"2300 PATTERSON STREET","NASHVILLE","TN",37203,"2300 PATTERSON STREET, NASHVILLE, TN, 37203, USA",-86.809562,36.151882
"UNITED REGIONAL HEALTH CARE SYSTEM",450010,"1600 11TH STREET","WICHITA FALLS","TX",76301,"1600 11TH STREET, WICHITA FALLS, TX, 76301, USA",-98.500328,33.902947
"LAS PALMAS MEDICAL CENTER",450107,"1801 NORTH OREGON STREET","EL PASO","TX",79902,"1801 NORTH OREGON STREET, EL PASO, TX, 79902, USA",-106.49823,31.769887
"SOUTH TEXAS HEALTH SYSTEM",450119,"1102 W TRENTON ROAD","EDINBURG","TX",78539,"1102 W TRENTON ROAD, EDINBURG, TX, 78539, USA",-98.1832,26.263325
"CONROE REGIONAL MEDICAL CENTER",450222,"504 MEDICAL CENTER BLVD","CONROE","TX",77304,"504 MEDICAL CENTER BLVD, CONROE, TX, 77304, USA",-95.465907,30.284786
"THE MEDICAL CENTER OF SOUTHEAST TEXAS",450518,"2555 JIMMY JOHNSON BLVD","PORT ARTHUR","TX",77640,"2555 JIMMY JOHNSON BLVD, PORT ARTHUR, TX, 77640, USA",-93.98211,29.937678
"VALLEY REGIONAL MEDICAL CENTER",450662,"100 A ALTON GLOOR","BROWNSVILLE","TX",78526,"100 A ALTON GLOOR, BROWNSVILLE, TX, 78526, USA",-97.516451,25.978907
"PLAZA MEDICAL CENTER OF FORT WORTH",450672,"900 EIGHTH AVENUE","FORT WORTH","TX",76104,"900 EIGHTH AVENUE, FORT WORTH, TX, 76104, USA",-97.343691,32.734972
"MEMORIAL HERMANN NORTHEAST",450684,"18951 MEMORIAL NORTH","HUMBLE","TX",77338,"18951 MEMORIAL NORTH, HUMBLE, TX, 77338, USA",-95.275367,29.994544
"METHODIST CHARLTON MEDICAL CENTER",450723,"3500 W WHEATLAND ROAD","DALLAS","TX",75237,"3500 W WHEATLAND ROAD, DALLAS, TX, 75237, USA",-96.877415,32.647504
"HOUSTON METHODIST SUGARLAND HOSPITAL",450820,"16655 SOUTHWEST FREEWAY","SUGAR LAND","TX",77479,"16655 SOUTHWEST FREEWAY, SUGAR LAND, TX, 77479, USA",-95.633297,29.590434
"PEACEHEALTH SOUTHWEST MEDICAL CENTER",500050,"400 NE MOTHER JOSEPH PLACE","VANCOUVER","WA",98668,"400 NE MOTHER JOSEPH PLACE, VANCOUVER, WA, 98668, USA",-122.582173,45.624491
"MASSACHUSETTS EYE AND EAR INFIRMARY -",220075,"243 CHARLES STREET","BOSTON","MA",2114,"243 CHARLES STREET, BOSTON, MA, 2114, USA",-71.070692,42.362515
"SWEDISH MEDICAL CENTER",500027,"747 BROADWAY","SEATTLE","WA",98122,"747 BROADWAY, SEATTLE, WA, 98122, USA",-122.319868,47.61154
"KARMANOS CANCER CENTER",230297,"4100 JOHN R","DETROIT","MI",48201,"4100 JOHN R, DETROIT, MI, 48201, USA",-83.057999,42.351444
"VIRGINIA MASON MEDICAL CENTER",500005,"925 SENECA ST","SEATTLE","WA",98101,"925 SENECA ST, SEATTLE, WA, 98101, USA",-122.328444,47.609884
"PRESBYTERIAN ST LUKES MEDICAL CENTER",60014,"1719 E 19TH AVE","DENVER","CO",80218,"1719 E 19TH AVE, DENVER, CO, 80218, USA",-104.967028,39.746001
"MEDICAL CITY DALLAS",450647,"7777 FOREST LANE","DALLAS","TX",75230,"7777 FOREST LANE, DALLAS, TX, 75230, USA",-96.771343,32.909372
"ST DAVID'S SOUTH AUSTIN MEDICAL CENTER",450713,"901 WEST BEN WHITE BLVD","AUSTIN","TX",78704,"901 WEST BEN WHITE BLVD, AUSTIN, TX, 78704, USA",-97.773479,30.227318
"LDS HOSPITAL",460006,"8TH AVENUE AND C STREET","SALT LAKE CITY","UT",84143,"8TH AVENUE AND C STREET, SALT LAKE CITY, UT, 84143, USA",-111.899684,40.786732
"BANNER DESERT MEDICAL CENTER",30065,"1400 SOUTH  DOBSON ROAD","MESA","AZ",85202,"1400 SOUTH  DOBSON ROAD, MESA, AZ, 85202, USA",-111.874732,33.389166
"CALIFORNIA PACIFIC MEDICAL CTR-DAVIES CAMPUS HOSP",50008,"601 DUBOCE AVE","SAN FRANCISCO","CA",94117,"601 DUBOCE AVE, SAN FRANCISCO, CA, 94117, USA",-122.433572,37.769178
"JOHN MUIR MEDICAL CENTER - WALNUT CREEK CAMPUS",50180,"1601 YGNACIO VALLEY RD","WALNUT CREEK","CA",94598,"1601 YGNACIO VALLEY RD, WALNUT CREEK, CA, 94598, USA",-122.042161,37.91423
"LOS ROBLES HOSPITAL & MEDICAL CENTER",50549,"215 W JANSS RD","THOUSAND OAKS","CA",91360,"215 W JANSS RD, THOUSAND OAKS, CA, 91360, USA",-118.882288,34.206539
"MISSION HOSPITAL REGIONAL MED CENTER",50567,"27700 MEDICAL CENTER RD","MISSION VIEJO","CA",92691,"27700 MEDICAL CENTER RD, MISSION VIEJO, CA, 92691, USA",-117.664861,33.559744
"NAPLES COMMUNITY HOSPITAL",100018,"350 7TH ST N","NAPLES","FL",34102,"350 7TH ST N, NAPLES, FL, 34102, USA",-81.798971,26.151434
"PALMETTO GENERAL HOSPITAL",100187,"2001 W 68TH ST","HIALEAH","FL",33016,"2001 W 68TH ST, HIALEAH, FL, 33016, USA",-80.32399,25.884069
"SAINT ALPHONSUS REGIONAL MEDICAL CENTER",130007,"1055 NORTH CURTIS ROAD","BOISE","ID",83706,"1055 NORTH CURTIS ROAD, BOISE, ID, 83706, USA",-116.25363,43.61266
"PRESENCE RESURRECTION MEDICAL CENTER",140117,"7435 W TALCOTT AVENUE","CHICAGO","IL",60631,"7435 W TALCOTT AVENUE, CHICAGO, IL, 60631, USA",-87.812547,41.988493
"ALEXIAN BROTHERS MEDICAL CENTER 1",140258,"800 W BIESTERFIELD RD","ELK GROVE VILLAGE","IL",60007,"800 W BIESTERFIELD RD, ELK GROVE VILLAGE, IL, 60007, USA",-88.017454,42.003531
"ADVOCATE GOOD SAMARITAN HOSPITAL",140288,"3815 HIGHLAND AVENUE","DOWNERS GROVE","IL",60515,"3815 HIGHLAND AVENUE, DOWNERS GROVE, IL, 60515, USA",-88.010372,41.820065
"ST CLOUD HOSPITAL",240036,"1406 6TH AVE NORTH","SAINT CLOUD","MN",56303,"1406 6TH AVE NORTH, SAINT CLOUD, MN, 56303, USA",-94.170313,45.57493
"FAIRVIEW SOUTHDALE HOSPITAL",240078,"6401 FRANCE AVENUE SOUTH","EDINA","MN",55435,"6401 FRANCE AVENUE SOUTH, EDINA, MN, 55435, USA",-93.328959,44.886565
"CROUSE HOSPITAL",330203,"736 IRVING AVENUE","SYRACUSE","NY",13210,"736 IRVING AVENUE, SYRACUSE, NY, 13210, USA",-76.137924,43.042044
"FORT SANDERS REGIONAL MEDICAL CENTER",440125,"1901 W CLINCH AVE","KNOXVILLE","TN",37916,"1901 W CLINCH AVE, KNOXVILLE, TN, 37916, USA",-83.93621,35.957171
"VHS HARLINGEN HOSPITAL COMPANY LLC",450033,"2101 PEASE ST","HARLINGEN","TX",78550,"2101 PEASE ST, HARLINGEN, TX, 78550, USA",-97.671642,26.17454
"SETON MEDICAL CENTER AUSTIN",450056,"1201 W 38TH ST","AUSTIN","TX",78705,"1201 W 38TH ST, AUSTIN, TX, 78705, USA",-97.744854,30.305997
"CHRISTUS MOTHER FRANCES HOSPITAL",450102,"800 EAST DAWSON","TYLER","TX",75701,"800 EAST DAWSON, TYLER, TX, 75701, USA",-95.292707,32.342233
"TEXAS HEALTH PRESBYTERIAN HOSPITAL  DALLAS",450462,"8200 WALNUT HILL LANE","DALLAS","TX",75231,"8200 WALNUT HILL LANE, DALLAS, TX, 75231, USA",-96.76384,32.883035
"BON SECOURS DEPAUL MEDICAL CENTER",490011,"150 KINGSLEY LANE","NORFOLK","VA",23505,"150 KINGSLEY LANE, NORFOLK, VA, 23505, USA",-76.281199,36.898225
"PROVIDENCE ST PETER HOSPITAL",500024,"413 LILLY ROAD NE","OLYMPIA","WA",98506,"413 LILLY ROAD NE, OLYMPIA, WA, 98506, USA",-122.844502,47.05274
"ST JOSEPH MEDICAL CENTER",500108,"1717 SOUTH J STREET","TACOMA","WA",98405,"1717 SOUTH J STREET, TACOMA, WA, 98405, USA",-122.448782,47.245817
"TACOMA GENERAL ALLENMORE HOSPITAL",500129,"315 S MLK JR WAY","TACOMA","WA",98405,"315 S MLK JR WAY, TACOMA, WA, 98405, USA",-122.472793,47.247871
"KAISER FOUNDATION HOSPITAL - REDWOOD CITY",50541,"1100 VETERANS BOULEVARD","REDWOOD CITY","CA",94063,"1100 VETERANS BOULEVARD, REDWOOD CITY, CA, 94063, USA",-122.224694,37.48977
"PENNSYLVANIA HOSPITAL",390226,"800 SPRUCE STREET","PHILADELPHIA","PA",19107,"800 SPRUCE STREET, PHILADELPHIA, PA, 19107, USA",-75.154759,39.945729
"ST VINCENT'S BIRMINGHAM",10056,"810 ST VINCENT'S DRIVE","BIRMINGHAM","AL",35205,"810 ST VINCENT'S DRIVE, BIRMINGHAM, AL, 35205, USA",-86.786901,33.507899
"FLAGSTAFF MEDICAL CENTER",30023,"1200 NORTH BEAVER STREET","FLAGSTAFF","AZ",86001,"1200 NORTH BEAVER STREET, FLAGSTAFF, AZ, 86001, USA",-111.644999,35.209094
"BANNER THUNDERBIRD MEDICAL CENTER",30089,"5555 WEST THUNDERBIRD ROAD","GLENDALE","AZ",85306,"5555 WEST THUNDERBIRD ROAD, GLENDALE, AZ, 85306, USA",-112.178322,33.610673
"MERCY GENERAL HOSPITAL",50017,"4001 J ST","SACRAMENTO","CA",95819,"4001 J ST, SACRAMENTO, CA, 95819, USA",-121.452729,38.569362
"ENLOE MEDICAL CENTER",50039,"1531 ESPLANADE","CHICO","CA",95926,"1531 ESPLANADE, CHICO, CA, 95926, USA",-121.848942,39.742346
"ST JOSEPH HOSPITAL",50069,"1100 WEST STEWART DR","ORANGE","CA",92868,"1100 WEST STEWART DR, ORANGE, CA, 92868, USA",-117.865078,33.78238
"ST JOHNS REGIONAL MEDICAL CENTER",50082,"1600 N ROSE AVE","OXNARD","CA",93030,"1600 N ROSE AVE, OXNARD, CA, 93030, USA",-119.158433,34.216363
"ST JOSEPH'S MEDICAL CENTER OF STOCKTON",50084,"1800 N CALIFORNIA ST","STOCKTON","CA",95204,"1800 N CALIFORNIA ST, STOCKTON, CA, 95204, USA",-121.289251,37.970739
"MARIAN REGIONAL MEDICAL CENTER",50107,"1400 E CHURCH ST","SANTA MARIA","CA",93454,"1400 E CHURCH ST, SANTA MARIA, CA, 93454, USA",-120.414694,34.952045
"PALOMAR HEALTH DOWNTOWN CAMPUS",50115,"555 E VALLEY PARKWAY","ESCONDIDO","CA",92025,"555 E VALLEY PARKWAY, ESCONDIDO, CA, 92025, USA",-117.075934,33.12624
"COMMUNITY HOSPITAL OF THE MONTEREY PENINSULA",50145,"23625 W R HOLMAN HIGHWAY","MONTEREY","CA",93940,"23625 W R HOLMAN HIGHWAY, MONTEREY, CA, 93940, USA",-121.915121,36.579036
"PRESBYTERIAN INTERCOMMUNITY HOSPITAL",50169,"12401 WASHINGTON BLVD","WHITTIER","CA",90602,"12401 WASHINGTON BLVD, WHITTIER, CA, 90602, USA",-118.048017,33.967307
"SANTA ROSA MEMORIAL HOSPITAL",50174,"1165 MONTGOMERY DR","SANTA ROSA","CA",95405,"1165 MONTGOMERY DR, SANTA ROSA, CA, 95405, USA",-122.701693,38.442849
"DOMINICAN HOSPITAL",50242,"1555 SOQUEL DRIVE","SANTA CRUZ","CA",95065,"1555 SOQUEL DRIVE, SANTA CRUZ, CA, 95065, USA",-121.982932,36.988652
"EL CAMINO HOSPITAL",50308,"2500 GRANT ROAD","MOUNTAIN VIEW","CA",94040,"2500 GRANT ROAD, MOUNTAIN VIEW, CA, 94040, USA",-122.077814,37.368484
"SALINAS VALLEY MEMORIAL HOSPITAL",50334,"450 EAST ROMIE LANE","SALINAS","CA",93901,"450 EAST ROMIE LANE, SALINAS, CA, 93901, USA",-121.648138,36.660317
"MARIN GENERAL HOSPITAL",50360,"250 BON AIR ROAD, PO BOX 8010","GREENBRAE","CA",94904,"250 BON AIR ROAD, PO BOX 8010, GREENBRAE, CA, 94904, USA",-122.536337,37.947874
"GOOD SAMARITAN HOSPITAL",50380,"2425 SAMARITAN DRIVE","SAN JOSE","CA",95124,"2425 SAMARITAN DRIVE, SAN JOSE, CA, 95124, USA",-121.949807,37.251259
"ADVENTIST HEALTH BAKERSFIELD",50455,"2615 CHESTER AVENUE","BAKERSFIELD","CA",93301,"2615 CHESTER AVENUE, BAKERSFIELD, CA, 93301, USA",-119.018847,35.383028
"EISENHOWER MEDICAL CENTER",50573,"39-000 BOB HOPE DRIVE","RANCHO MIRAGE","CA",92270,"39-000 BOB HOPE DRIVE, RANCHO MIRAGE, CA, 92270, USA",-116.41051,33.81633
"CENTURA HEALTH-LITTLETON ADVENTIST HOSPITAL",60113,"7700 S BROADWAY","LITTLETON","CO",80122,"7700 S BROADWAY, LITTLETON, CO, 80122, USA",-104.988312,39.577282
"SACRED HEART HOSPITAL",100025,"5151 N 9TH AVE","PENSACOLA","FL",32504,"5151 N 9TH AVE, PENSACOLA, FL, 32504, USA",-87.211553,30.474374
"MARTIN MEDICAL CENTER",100044,"200 SE HOSPITAL AVE","STUART","FL",34995,"200 SE HOSPITAL AVE, STUART, FL, 34995, USA",-80.243026,27.19907
"FLORIDA HOSPITAL MEMORIAL MEDICAL CENTER",100068,"301 MEMORIAL MEDICAL PARKWAY","DAYTONA BEACH","FL",32117,"301 MEMORIAL MEDICAL PARKWAY, DAYTONA BEACH, FL, 32117, USA",-81.190469,29.478949
"HOLY CROSS HOSPITAL",100073,"4725 N FEDERAL HWY","FORT LAUDERDALE","FL",33308,"4725 N FEDERAL HWY, FORT LAUDERDALE, FL, 33308, USA",-80.117652,26.185539
"CENTRAL FLORIDA REGIONAL HOSPITAL",100161,"1401 W SEMINOLE BLVD","SANFORD","FL",32771,"1401 W SEMINOLE BLVD, SANFORD, FL, 32771, USA",-81.281424,28.816129
"PIEDMONT ATHENS REGIONAL MEDICAL CENTER",110074,"1199 PRINCE AVENUE","ATHENS","GA",30606,"1199 PRINCE AVENUE, ATHENS, GA, 30606, USA",-83.398057,33.962421
"GWINNETT MEDICAL CENTER",110087,"1000 MEDICAL CENTER BOULEVARD","LAWRENCEVILLE","GA",30045,"1000 MEDICAL CENTER BOULEVARD, LAWRENCEVILLE, GA, 30045, USA",-84.02129,33.877121
